[
    { "county":"臺北市","town":"士林區","name":"粱耳鼻喉科診所","address":"臺北市士林區社正路12-1號","phone":"02-28168456","Lng":"121.509303","Lat":"25.08855"}
    ,
    { "county":"臺北市","town":"大同區","name":"大同耳鼻喉科診所","address":"臺北市大同區重慶北路三段250之4號","phone":"02-25975833","Lng":"121.513575","Lat":"25.071148"}
    ,
    { "county":"臺北市","town":"大同區","name":"建順診所","address":"臺北市大同區甘州街51號","phone":"02-25573250","Lng":"121.512854","Lat":"25.059677"}
    ,
    { "county":"臺北市","town":"大同區","name":"施小兒科診所","address":"臺北市大同區重慶北路三段28號","phone":"02-25941935","Lng":"121.513461","Lat":"25.06509"}
    ,
    { "county":"臺北市","town":"大安區","name":"尹書田醫療財團法人書田泌尿科眼科診所","address":"臺北市大安區建國南路二段276號","phone":"02-23690211","Lng":"121.537266","Lat":"25.025172"}
    ,
    { "county":"臺北市","town":"大安區","name":"萬通耳鼻喉科診所","address":"臺北市大安區延吉街64-2號1樓","phone":"02-27518909","Lng":"121.553878","Lat":"25.043365"}
    ,
    { "county":"臺北市","town":"大安區","name":"劉耳鼻喉科診所","address":"臺北市大安區復興南路二段151巷27號","phone":"02-27546060","Lng":"121.544663","Lat":"25.028469"}
    ,
    { "county":"臺北市","town":"中山區","name":"大直佳恩診所","address":"臺北市中山區北安路591號","phone":"02-25323301","Lng":"121.548643","Lat":"25.081944"}
    ,
    { "county":"臺北市","town":"中山區","name":"永育樂群診所","address":"臺北市中山區樂群二路210之2號1樓","phone":"02-85012268","Lng":"121.559333","Lat":"25.079516"}
    ,
    { "county":"臺北市","town":"中山區","name":"固亷診所","address":"臺北市中山區北安路613號","phone":"02-25323036","Lng":"121.548801","Lat":"25.082581"}
    ,
    { "county":"臺北市","town":"中山區","name":"高固亷診所","address":"臺北市中山區北安路613號","phone":"02-25323036","Lng":"121.548801","Lat":"25.082581"}
    ,
    { "county":"臺北市","town":"中山區","name":"惟亷診所","address":"臺北市中山區北安路595巷1號B1","phone":"02-25323038","Lng":"121.548528","Lat":"25.082196"}
    ,
    { "county":"臺北市","town":"中山區","name":"莊宇龍診所","address":"臺北市中山區北安路637號","phone":"02-25331255","Lng":"121.54903","Lat":"25.083708"}
    ,
    { "county":"臺北市","town":"中山區","name":"愛鄰診所","address":"臺北市中山區北安路520-1號","phone":"02-25322333","Lng":"121.5461","Lat":"25.079699"}
    ,
    { "county":"臺北市","town":"中山區","name":"龍江固亷診所","address":"臺北市中山區龍江路360號","phone":"02-25170093","Lng":"121.54089","Lat":"25.066137"}
    ,
    { "county":"臺北市","town":"中正區","name":"悅心診所","address":"臺北市中正區羅斯福路2段7之2號","phone":"02-23961008","Lng":"121.521196","Lat":"25.029108"}
    ,
    { "county":"臺北市","town":"中正區","name":"健康101診所","address":"臺北市中正區牯嶺街97號","phone":"02-23648085","Lng":"121.519082","Lat":"25.025915"}
    ,
    { "county":"臺北市","town":"內湖區","name":"大湖診所","address":"臺北市內湖區成功路四段366號","phone":"02-27906002","Lng":"121.600356","Lat":"25.084859"}
    ,
    { "county":"臺北市","town":"內湖區","name":"成安耳鼻喉科診所","address":"臺北市內湖區成功路4段61巷10號","phone":"02-27935940","Lng":"121.592761","Lat":"25.081702"}
    ,
    { "county":"臺北市","town":"內湖區","name":"林永正診所","address":"臺北市內湖區康樂街130號","phone":"02-26315567","Lng":"121.619156","Lat":"25.071636"}
    ,
    { "county":"臺北市","town":"內湖區","name":"施耳鼻喉科診所","address":"臺北市內湖區東湖路90號2樓","phone":"02-26331018","Lng":"121.614864","Lat":"25.068496"}
    ,
    { "county":"臺北市","town":"內湖區","name":"康樂診所","address":"臺北市內湖區康樂街80號.82號.84號","phone":"02-26308800","Lng":"121.618859","Lat":"25.070146"}
    ,
    { "county":"臺北市","town":"內湖區","name":"陳森豊診所","address":"臺北市內湖區環山路一段2號","phone":"02-27990361","Lng":"121.565392","Lat":"25.082795"}
    ,
    { "county":"臺北市","town":"文山區","name":"王令時內科診所","address":"臺北市文山區興隆路二段200號","phone":"02-29326912","Lng":"121.552024","Lat":"25.001629"}
    ,
    { "county":"臺北市","town":"北投區","name":"台北欣安耳鼻喉科診所","address":"臺北市北投區石牌路一段152號","phone":"02-28210501","Lng":"121.51316","Lat":"25.114276"}
    ,
    { "county":"臺北市","town":"北投區","name":"洪耳鼻喉科診所","address":"臺北市北投區中央南路1段43號","phone":"02-28928769","Lng":"121.501448","Lat":"25.132204"}
    ,
    { "county":"臺北市","town":"北投區","name":"黃正宏診所","address":"臺北市北投區西安街一段359號","phone":"02-28217076","Lng":"121.515314","Lat":"25.114287"}
    ,
    { "county":"臺北市","town":"松山區","name":"王俊彰耳鼻喉科診所","address":"臺北市松山區民生東路五段17號","phone":"02-27665698","Lng":"121.555944","Lat":"25.05846"}
    ,
    { "county":"臺北市","town":"松山區","name":"車參薇小兒科診所","address":"臺北市松山區八德路3段195號1樓","phone":"02-25770101","Lng":"121.55619","Lat":"25.048162"}
    ,
    { "county":"臺北市","town":"松山區","name":"泰安親親家庭診所","address":"臺北市松山區光復北路97號","phone":"02-27605036","Lng":"121.558051","Lat":"25.050861"}
    ,
    { "county":"臺北市","town":"松山區","name":"陳大昕耳鼻喉科診所","address":"臺北市松山區八德路4段100號","phone":"02-27676349","Lng":"121.560762","Lat":"25.048369"}
    ,
    { "county":"臺北市","town":"松山區","name":"詹前俊小兒科診所","address":"臺北市松山區民生東路五段105號","phone":"02-27653039","Lng":"121.560077","Lat":"25.058776"}
    ,
    { "county":"臺北市","town":"松山區","name":"澄東耳鼻喉科診所","address":"臺北市松山區三民路37號","phone":"02-27420552","Lng":"121.563524","Lat":"25.0558"}
    ,
    { "county":"臺北市","town":"信義區","name":"信義耳鼻喉科診所","address":"臺北市信義區莊敬路391巷4號","phone":"02-23450288","Lng":"121.565775","Lat":"25.027958"}
    ,
    { "county":"臺北市","town":"信義區","name":"張育驍診所","address":"臺北市信義區吳興街467巷2弄4號.6號.6號2樓.10號","phone":"02-27291011","Lng":"121.569346","Lat":"25.023899"}
    ,
    { "county":"臺北市","town":"信義區","name":"陳世卿診所","address":"臺北市信義區莊敬路435號1樓","phone":"02-87803565","Lng":"121.56695","Lat":"25.027184"}
    ,
    { "county":"臺北市","town":"信義區","name":"陳威璋耳鼻喉科診所","address":"臺北市信義區松德路58號","phone":"02-27584958","Lng":"121.576417","Lat":"25.038758"}
    ,
    { "county":"臺北市","town":"信義區","name":"黃啟彰診所","address":"臺北市信義區松山路261-1號","phone":"02-27696218","Lng":"121.577974","Lat":"25.043835"}
    ,
    { "county":"臺北市","town":"信義區","name":"董耳鼻喉科診所","address":"臺北市信義區永吉路284號","phone":"02-27643502","Lng":"121.574364","Lat":"25.045379"}
    ,
    { "county":"臺北市","town":"南港區","name":"永育診所","address":"臺北市南港區福德街320之2號","phone":"02-27850700","Lng":"121.588026","Lat":"25.039494"}
    ,
    { "county":"臺北市","town":"南港區","name":"李文珍小兒科診所","address":"臺北市南港區研究院路二段74號","phone":"02-26511871","Lng":"121.615108","Lat":"25.04557"}
    ,
    { "county":"臺北市","town":"南港區","name":"冠德耳鼻喉科診所","address":"臺北市南港區研究院路一段17號","phone":"02-26513085","Lng":"121.616579","Lat":"25.054076"}
    ,
    { "county":"臺北市","town":"萬華區","name":"快樂兒童診所","address":"臺北市萬華區寶興街121號","phone":"02-23328610","Lng":"121.494803","Lat":"25.025229"}
    ,
    { "county":"基隆市","town":"七堵區","name":"西華診所","address":"基隆市七堵區百三街29號","phone":"02-24512942","Lng":"121.695477","Lat":"25.081966"}
    ,
    { "county":"基隆市","town":"七堵區","name":"紀醫師診所","address":"基隆市七堵區開元路83號","phone":"02-24551482","Lng":"121.712748","Lat":"25.095765"}
    ,
    { "county":"基隆市","town":"中山區","name":"聖德診所","address":"基隆市中山區西定路411號","phone":"02-24293939","Lng":"121.729174","Lat":"25.139257"}
    ,
    { "county":"基隆市","town":"中正區","name":"博群診所","address":"基隆市中正區新豐街446號","phone":"02-24601356","Lng":"121.785946","Lat":"25.135677"}
    ,
    { "county":"基隆市","town":"安樂區","name":"李偉華耳鼻喉科診所","address":"基隆市安樂區安樂路二段179號1樓","phone":"02-24348535","Lng":"121.724013","Lat":"25.12101"}
    ,
    { "county":"基隆市","town":"暖暖區","name":"碇內診所","address":"基隆市暖暖區源遠路323號","phone":"02-24595878","Lng":"121.757513","Lat":"25.099426"}
    ,
    { "county":"新北市","town":"八里區","name":"誠泰診所","address":"新北市八里區中山路一段231號","phone":"02-26108205","Lng":"121.411033","Lat":"25.157539"}
    ,
    { "county":"新北市","town":"三芝區","name":"三芝彭小兒科診所","address":"新北市三芝區中山路一段59號1樓","phone":"02-26369622;02-26369708","Lng":"121.500763","Lat":"25.257218"}
    ,
    { "county":"新北市","town":"三芝區","name":"曾明診所","address":"新北市三芝區中正路一段6號1樓","phone":"02-26369942","Lng":"121.502802","Lat":"25.259073"}
    ,
    { "county":"新北市","town":"三重區","name":"三重祥安診所","address":"新北市三重區三和路四段374號","phone":"02-22808558","Lng":"121.48266","Lat":"25.078745"}
    ,
    { "county":"新北市","town":"三重區","name":"吉田診所","address":"新北市三重區中正北路174-7號","phone":"02-29845093","Lng":"121.483384","Lat":"25.066707"}
    ,
    { "county":"新北市","town":"三重區","name":"至安診所","address":"新北市三重區重安街6號","phone":"02-29773835","Lng":"121.490084","Lat":"25.058577"}
    ,
    { "county":"新北市","town":"三重區","name":"洪小兒科診所","address":"新北市三重區三民街243號","phone":"02-29823852","Lng":"121.479945","Lat":"25.067608"}
    ,
    { "county":"新北市","town":"三重區","name":"新北市三重區衛生所","address":"新北市三重區新北大道一段1號","phone":"02-29825233","Lng":"121.491392","Lat":"25.061191"}
    ,
    { "county":"新北市","town":"三重區","name":"瑞和耳鼻喉科診所","address":"新北市三重區龍門路22號1樓","phone":"02-29757788","Lng":"121.495344","Lat":"25.071992"}
    ,
    { "county":"新北市","town":"三重區","name":"詹益智耳鼻喉科診所","address":"新北市三重區重陽路四段6號","phone":"02-29859589","Lng":"121.490632","Lat":"25.068935"}
    ,
    { "county":"新北市","town":"三重區","name":"賴美里診所","address":"新北市三重區重新路三段106號","phone":"02-89725629","Lng":"121.492581","Lat":"25.060381"}
    ,
    { "county":"新北市","town":"三重區","name":"聰明耳鼻喉科","address":"新北市三重區重新路2段14號1樓","phone":"02-89727370","Lng":"121.499495","Lat":"25.062685"}
    ,
    { "county":"新北市","town":"三峽區","name":"北大小兒科診所","address":"新北市三峽區大學路87號2樓","phone":"02-26718080","Lng":"121.375891","Lat":"24.941707"}
    ,
    { "county":"新北市","town":"三峽區","name":"星龍耳鼻喉科診所","address":"新北市三峽區國際一街5號1樓","phone":"02-26711676","Lng":"121.374561","Lat":"24.94309"}
    ,
    { "county":"新北市","town":"三峽區","name":"詹小兒科診所","address":"新北市三峽區中華路13之6號","phone":"02-26742308","Lng":"121.373548","Lat":"24.931918"}
    ,
    { "county":"新北市","town":"三峽區","name":"趙敏政耳鼻喉科診所","address":"新北市三峽區復興路93、95號1樓","phone":"02-86743300","Lng":"121.372217","Lat":"24.937615"}
    ,
    { "county":"新北市","town":"土城區","name":"城林小兒科診所","address":"新北市土城區中央路二段312號","phone":"02-22706166","Lng":"121.440386","Lat":"24.973108"}
    ,
    { "county":"新北市","town":"土城區","name":"祐生耳鼻喉科診所","address":"新北市土城區中央路二段223之9號1樓","phone":"02-82614588","Lng":"121.440678","Lat":"24.973188"}
    ,
    { "county":"新北市","town":"土城區","name":"莊京憲耳鼻喉科診所","address":"新北市土城區明德路一段2號","phone":"02-82603171","Lng":"121.464656","Lat":"24.985811"}
    ,
    { "county":"新北市","town":"土城區","name":"頂埔中心診所","address":"新北市土城區中央路四段286號","phone":"02-22671382","Lng":"121.414306","Lat":"24.956429"}
    ,
    { "county":"新北市","town":"土城區","name":"裕安診所","address":"新北市土城區裕民路131號1樓","phone":"02-22613300","Lng":"121.451445","Lat":"24.986507"}
    ,
    { "county":"新北市","town":"土城區","name":"羅林小兒科診所","address":"新北市土城區裕民路83號1、2樓","phone":"02-82733026","Lng":"121.450052","Lat":"24.987362"}
    ,
    { "county":"新北市","town":"中和區","name":"中和重慶耳鼻喉科診所","address":"新北市中和區中和路127號1、2樓","phone":"02-22426600","Lng":"121.501804","Lat":"25.000122"}
    ,
    { "county":"新北市","town":"中和區","name":"友善宜安診所","address":"新北市中和區保健路73巷7號","phone":"02-29438533","Lng":"121.510785","Lat":"24.997091"}
    ,
    { "county":"新北市","town":"中和區","name":"王俊傑診所","address":"新北市中和區中安街8號","phone":"02-29293636","Lng":"121.513478","Lat":"25.003392"}
    ,
    { "county":"新北市","town":"中和區","name":"安祐診所","address":"新北市中和區景新街401號1、2樓","phone":"02-86681070","Lng":"121.512666","Lat":"24.989729"}
    ,
    { "county":"新北市","town":"中和區","name":"健和診所","address":"新北市中和區景新街401號1、2樓","phone":"02-86681070","Lng":"121.512666","Lat":"24.989729"}
    ,
    { "county":"新北市","town":"中和區","name":"唯安診所","address":"新北市中和區景新街455號","phone":"02 2947 9165","Lng":"121.513292","Lat":"24.988437"}
    ,
    { "county":"新北市","town":"中和區","name":"凱程診所","address":"新北市中和區員山路150-8號1樓","phone":"02-22231868","Lng":"121.481363","Lat":"24.997481"}
    ,
    { "county":"新北市","town":"中和區","name":"盧建宏耳鼻喉科診所","address":"新北市中和區宜安路151號","phone":"02-29493069","Lng":"121.509075","Lat":"24.998709"}
    ,
    { "county":"新北市","town":"五股區","name":"五股水碓診所","address":"新北市五股區自強路36號1樓","phone":"02-22921516","Lng":"121.43384","Lat":"25.074088"}
    ,
    { "county":"新北市","town":"五股區","name":"成洲診所","address":"新北市五股區凌雲路一段73號","phone":"02-22919463","Lng":"121.450997","Lat":"25.101108"}
    ,
    { "county":"新北市","town":"平溪區","name":"瑞安診所","address":"新北市平溪區平溪街9號","phone":"02-24951083","Lng":"121.738684","Lat":"25.024989"}
    ,
    { "county":"新北市","town":"永和區","name":"吳宗坡耳鼻喉科診所","address":"新北市永和區得和路381號","phone":"02-86603386","Lng":"121.524964","Lat":"24.999426"}
    ,
    { "county":"新北市","town":"永和區","name":"國平耳鼻喉科診所","address":"新北市永和區永貞路376號","phone":"02-89233980","Lng":"121.50991","Lat":"25.007027"}
    ,
    { "county":"新北市","town":"永和區","name":"頂溪耳鼻喉科診所","address":"新北市永和區永和路二段139-1號1樓","phone":"02-29290066","Lng":"121.515041","Lat":"25.012561"}
    ,
    { "county":"新北市","town":"永和區","name":"德美診所","address":"新北市永和區中正路455之1號1樓","phone":"02-29273001","Lng":"121.516994","Lat":"25.005607"}
    ,
    { "county":"新北市","town":"永和區","name":"德謙耳鼻喉科診所","address":"新北市永和區竹林路216號","phone":"02-29265690","Lng":"121.520708","Lat":"25.008102"}
    ,
    { "county":"新北市","town":"石碇區","name":"新北市石碇區衛生所","address":"新北市石碇區碇坪路一段82號","phone":"02-26631325","Lng":"121.65761","Lat":"24.991349"}
    ,
    { "county":"新北市","town":"汐止區","name":"弘人小兒科診所","address":"新北市汐止區福德二路152號","phone":"02-26932439","Lng":"121.630427","Lat":"25.065154"}
    ,
    { "county":"新北市","town":"汐止區","name":"育和診所","address":"新北市汐止區中正路31號","phone":"02-26486803","Lng":"121.662328","Lat":"25.070246"}
    ,
    { "county":"新北市","town":"汐止區","name":"朝芳診所","address":"新北市汐止區中正路8號","phone":"02-26427297","Lng":"121.663073","Lat":"25.070191"}
    ,
    { "county":"新北市","town":"汐止區","name":"新北市汐止區衛生所","address":"新北市汐止區新台五路一段266號","phone":"02-26412030","Lng":"121.658534","Lat":"25.063513"}
    ,
    { "county":"新北市","town":"汐止區","name":"楊內科小兒科診所","address":"新北市汐止區汐萬路1段25號","phone":"02-26420233","Lng":"121.65579","Lat":"25.067729"}
    ,
    { "county":"新北市","town":"汐止區","name":"福德診所","address":"新北市汐止區福德二路171號","phone":"02-26959877","Lng":"121.630743","Lat":"25.065073"}
    ,
    { "county":"新北市","town":"坪林區","name":"新北市坪林區衛生所","address":"新北市坪林區坪林里坪林街104號","phone":"02-26656272","Lng":"121.711626","Lat":"24.935877"}
    ,
    { "county":"新北市","town":"板橋區","name":"成安診所","address":"新北市板橋區重慶路308巷2號","phone":"02-29588182","Lng":"121.463516","Lat":"24.998034"}
    ,
    { "county":"新北市","town":"板橋區","name":"李連成耳鼻喉科診所","address":"新北市板橋區雙十路二段162號","phone":"02-22505752","Lng":"121.473146","Lat":"25.02951"}
    ,
    { "county":"新北市","town":"板橋區","name":"周耳鼻喉科診所","address":"新北市板橋區文化路2段5號1樓","phone":"02-22525158","Lng":"121.468466","Lat":"25.024262"}
    ,
    { "county":"新北市","town":"板橋區","name":"和安診所","address":"新北市板橋區四維路313號","phone":"02-22578133;02-22579249","Lng":"121.462962","Lat":"25.028789"}
    ,
    { "county":"新北市","town":"板橋區","name":"林國本耳鼻喉科診所","address":"新北市板橋區文聖街6號","phone":"02-22557445","Lng":"121.475227","Lat":"25.032394"}
    ,
    { "county":"新北市","town":"板橋區","name":"重慶耳鼻喉科診所","address":"新北市板橋區和平路161巷26號","phone":"02-89517755","Lng":"121.463474","Lat":"24.996772"}
    ,
    { "county":"新北市","town":"板橋區","name":"莒光診所","address":"新北市板橋區莒光路30號","phone":"02-22527700","Lng":"121.470153","Lat":"25.024514"}
    ,
    { "county":"新北市","town":"板橋區","name":"蕭正輝兒科診所","address":"新北市板橋區文化路二段137號1樓","phone":"02-22501101","Lng":"121.469914","Lat":"25.026831"}
    ,
    { "county":"新北市","town":"林口區","name":"明揚診所","address":"新北市林口區中山路192號","phone":"02-26035801;02-26035802","Lng":"121.38901","Lat":"25.079118"}
    ,
    { "county":"新北市","town":"林口區","name":"林口微笑親子耳鼻喉科診所","address":"新北市林口區文化三路一段419號1樓、421號1樓","phone":"02-26000515","Lng":"121.367397","Lat":"25.074301"}
    ,
    { "county":"新北市","town":"林口區","name":"陽光耳鼻喉科診所","address":"新北市林口區仁愛路二段113.115.117號1樓","phone":"02-26016068","Lng":"121.384039","Lat":"25.074916"}
    ,
    { "county":"新北市","town":"林口區","name":"橙安親子診所","address":"新北市林口區文化三路二段50號1樓","phone":"02-26032507","Lng":"121.374589","Lat":"25.080174"}
    ,
    { "county":"新北市","town":"林口區","name":"穎欣診所","address":"新北市林口區文化二路1段535號1F","phone":"02-26069786","Lng":"121.37398","Lat":"25.076481"}
    ,
    { "county":"新北市","town":"林口區","name":"親子耳鼻喉科診所","address":"新北市林口區仁愛路二段113.115.117號1樓","phone":"02-26016068","Lng":"121.383902","Lat":"25.074843"}
    ,
    { "county":"新北市","town":"金山區","name":"新北市金山區衛生所","address":"新北市金山區中山路257號4樓","phone":"02-24982778","Lng":"121.636872","Lat":"25.222094"}
    ,
    { "county":"新北市","town":"泰山區","name":"永安診所","address":"新北市泰山區仁愛路112-2號","phone":"02-85318184","Lng":"121.433633","Lat":"25.055579"}
    ,
    { "county":"新北市","town":"泰山區","name":"永旭診所","address":"新北市泰山區仁愛路88號1樓","phone":"02-22979722","Lng":"121.432992","Lat":"25.055254"}
    ,
    { "county":"新北市","town":"泰山區","name":"泰和診所","address":"新北市泰山區明志路2段62號","phone":"02-85315320","Lng":"121.429024","Lat":"25.052689"}
    ,
    { "county":"新北市","town":"泰山區","name":"溫法烈耳鼻喉科診所","address":"新北市泰山區泰林路2段175號","phone":"02-29098253","Lng":"121.433546","Lat":"25.060758"}
    ,
    { "county":"新北市","town":"泰山區","name":"蔡興龍小兒科診所","address":"新北市泰山區明志路二段422號","phone":"02-22093645","Lng":"121.424919","Lat":"25.04388"}
    ,
    { "county":"新北市","town":"泰山區","name":"賴和鴻診所","address":"新北市泰山區明志路二段42號1樓","phone":"02-29094502","Lng":"121.42944","Lat":"25.053101"}
    ,
    { "county":"新北市","town":"烏來區","name":"新北市烏來區衛生所","address":"新北市烏來區新烏路五段109號","phone":"02-26617200","Lng":"121.547977","Lat":"24.871966"}
    ,
    { "county":"新北市","town":"貢寮區","name":"新北市貢寮區衛生所","address":"新北市貢寮區仁愛路128號","phone":"02-24901431","Lng":"121.927573","Lat":"25.054955"}
    ,
    { "county":"新北市","town":"淡水區","name":"水碓瑞安診所","address":"新北市淡水區北新路182巷61號","phone":"02-26203669","Lng":"121.447857","Lat":"25.177315"}
    ,
    { "county":"新北市","town":"淡水區","name":"李兆然家醫科診所","address":"新北市淡水區學府路18號","phone":"02-26299833","Lng":"121.447582","Lat":"25.16807"}
    ,
    { "county":"新北市","town":"淡水區","name":"沐恩診所","address":"新北市淡水區濱海路一段143號1樓","phone":"02-26299777","Lng":"121.43908","Lat":"25.189233"}
    ,
    { "county":"新北市","town":"淡水區","name":"林得時婦產科診所","address":"新北市淡水區中山路14號","phone":"02-26220695","Lng":"121.444812","Lat":"25.169415"}
    ,
    { "county":"新北市","town":"淡水區","name":"英專耳鼻喉科皮膚科診所","address":"新北市淡水區英專路96號","phone":"02-86317678","Lng":"121.445877","Lat":"25.171748"}
    ,
    { "county":"新北市","town":"淡水區","name":"許景新耳鼻喉科診所","address":"新北市淡水區中山路17號","phone":"02-26212779","Lng":"121.444072","Lat":"25.169877"}
    ,
    { "county":"新北市","town":"淡水區","name":"黃秋陽診所","address":"新北市淡水區中山路7號","phone":"02-26229596","Lng":"121.444154","Lat":"25.169675"}
    ,
    { "county":"新北市","town":"淡水區","name":"匯眾內科診所","address":"新北市淡水區中山北路一段101號","phone":"02-26229773","Lng":"121.442393","Lat":"25.176462"}
    ,
    { "county":"新北市","town":"深坑區","name":"幼恩診所","address":"新北市深坑區北深路三段173號","phone":"02-26625951","Lng":"121.601715","Lat":"25.003495"}
    ,
    { "county":"新北市","town":"深坑區","name":"謝家庭醫學科診所","address":"新北市深坑區北深路二段200號","phone":"02-26628081","Lng":"121.612989","Lat":"25.001659"}
    ,
    { "county":"新北市","town":"新店區","name":"安立診所","address":"新北市新店區北宜路二段28號1樓","phone":"02-22177669","Lng":"121.548222","Lat":"24.951429"}
    ,
    { "county":"新北市","town":"新店區","name":"安倍診所","address":"新北市新店區中正路132號","phone":"02-89119181","Lng":"121.542058","Lat":"24.971418"}
    ,
    { "county":"新北市","town":"新店區","name":"邱昰凱小兒科診所","address":"新北市新店區建國路226號1樓","phone":"02-29130360","Lng":"121.537801","Lat":"24.981459"}
    ,
    { "county":"新北市","town":"新店區","name":"康禾診所","address":"新北市新店區中正路140號1樓","phone":"02-29109696","Lng":"121.541921","Lat":"24.97153"}
    ,
    { "county":"新北市","town":"新店區","name":"陳沛生耳鼻喉科診所","address":"新北市新店區北新路二段39號","phone":"02-29178067","Lng":"121.542755","Lat":"24.972705"}
    ,
    { "county":"新北市","town":"新店區","name":"瑞安耳鼻喉科診所","address":"新北市新店區中正路140號1樓","phone":"02-29109696","Lng":"121.541921","Lat":"24.97153"}
    ,
    { "county":"新北市","town":"新店區","name":"睿安診所","address":"新北市新店區中正路140號1樓","phone":"02-29109696","Lng":"121.541921","Lat":"24.97153"}
    ,
    { "county":"新北市","town":"新店區","name":"耀程耳鼻喉科診所","address":"新北市新店區三民路66號","phone":"02-29171110","Lng":"121.535059","Lat":"24.972335"}
    ,
    { "county":"新北市","town":"新莊區","name":"思賢診所","address":"新北市新莊區自立街200號1樓","phone":"02-29923806","Lng":"121.45672","Lat":"25.045396"}
    ,
    { "county":"新北市","town":"新莊區","name":"家貞診所","address":"新北市新莊區福壽街67號","phone":"02-29942300","Lng":"121.458185","Lat":"25.049427"}
    ,
    { "county":"新北市","town":"新莊區","name":"家慈診所","address":"新北市新莊區福壽街67號","phone":"02-29942300","Lng":"121.458185","Lat":"25.049427"}
    ,
    { "county":"新北市","town":"新莊區","name":"家福診所","address":"新北市新莊區福壽街67號","phone":"02-29942300","Lng":"121.458185","Lat":"25.049427"}
    ,
    { "county":"新北市","town":"新莊區","name":"新和耳鼻喉科診所","address":"新北市新莊區幸福路69號","phone":"02-29938636","Lng":"121.457171","Lat":"25.049347"}
    ,
    { "county":"新北市","town":"新莊區","name":"錦明耳鼻喉科診所","address":"新北市新莊區民安路195號","phone":"02-22028080","Lng":"121.426173","Lat":"25.022614"}
    ,
    { "county":"新北市","town":"新莊區","name":"聯安診所","address":"新北市新莊區中正路330號","phone":"02-29986191","Lng":"121.445892","Lat":"25.034839"}
    ,
    { "county":"新北市","town":"新莊區","name":"聯福診所","address":"新北市新莊區民安路232號","phone":"02-22014370","Lng":"121.42615","Lat":"25.022324"}
    ,
    { "county":"新北市","town":"瑞芳區","name":"詠安診所","address":"新北市瑞芳區明燈路三段79號1樓","phone":"02-24960683","Lng":"121.805246","Lat":"25.108235"}
    ,
    { "county":"新北市","town":"萬里區","name":"新北市萬里區衛生所","address":"新北市萬里區瑪鍊路157號","phone":"02-24921117","Lng":"121.689713","Lat":"25.178332"}
    ,
    { "county":"新北市","town":"樹林區","name":"念生耳鼻喉科診所","address":"新北市樹林區文化街45號1樓","phone":"02-26751099","Lng":"121.418076","Lat":"24.988346"}
    ,
    { "county":"新北市","town":"樹林區","name":"信和耳鼻喉科診所","address":"新北市樹林區博愛街178號1、2樓","phone":"02-26822100","Lng":"121.425701","Lat":"24.990611"}
    ,
    { "county":"新北市","town":"樹林區","name":"信和診所","address":"新北市樹林區博愛街178號1、2樓","phone":"02-26822100","Lng":"121.425701","Lat":"24.990611"}
    ,
    { "county":"新北市","town":"雙溪區","name":"新北市雙溪區衛生所","address":"新北市雙溪區新基南街18號","phone":"02-24931210","Lng":"121.86645","Lat":"25.037917"}
    ,
    { "county":"新北市","town":"蘆洲區","name":"本一診所","address":"新北市蘆洲區長榮路43-1號","phone":"02-22836622","Lng":"121.462967","Lat":"25.082716"}
    ,
    { "county":"新北市","town":"蘆洲區","name":"許修平診所","address":"新北市蘆洲區長安街290號","phone":"02-2288102","Lng":"121.457409","Lat":"25.087994"}
    ,
    { "county":"新北市","town":"蘆洲區","name":"湯瑪士親子兒科診所","address":"新北市蘆洲區民族路377號1-2樓","phone":"02-22885523","Lng":"121.469922","Lat":"25.090481"}
    ,
    { "county":"新北市","town":"蘆洲區","name":"蘆洲現代耳鼻喉科診所","address":"新北市蘆洲區集賢路306號1樓","phone":"02-82811112","Lng":"121.481358","Lat":"25.085131"}
    ,
    { "county":"新北市","town":"蘆洲區","name":"蘆洲集賢耳鼻喉科診所","address":"新北市蘆洲區集賢路306號1樓","phone":"02-82811112","Lng":"121.481358","Lat":"25.085131"}
    ,
    { "county":"新北市","town":"鶯歌區","name":"怡兒診所","address":"新北市鶯歌區建國路173號","phone":"02-26707200","Lng":"121.349971","Lat":"24.953389"}
    ,
    { "county":"新北市","town":"鶯歌區","name":"崇文診所","address":"新北市鶯歌區國慶街141號","phone":"02-26783366","Lng":"121.350964","Lat":"24.953551"}
    ,
    { "county":"宜蘭縣","town":"五結鄉","name":"吉祥診所","address":"宜蘭縣五結鄉五結中路二段23-1號","phone":"03-9604853","Lng":"121.797583","Lat":"24.685609"}
    ,
    { "county":"宜蘭縣","town":"冬山鄉","name":"徐診所","address":"宜蘭縣冬山鄉照安路33巷32號","phone":"039-590923","Lng":"121.794291","Lat":"24.631391"}
    ,
    { "county":"宜蘭縣","town":"宜蘭市","name":"林耳鼻喉科診所","address":"宜蘭縣宜蘭市中山路三段233號","phone":"03-9311234","Lng":"121.753591","Lat":"24.761606"}
    ,
    { "county":"宜蘭縣","town":"宜蘭市","name":"曹天德診所","address":"宜蘭縣宜蘭市舊城東路3-1號","phone":"03-9353267","Lng":"121.75556","Lat":"24.755669"}
    ,
    { "county":"宜蘭縣","town":"礁溪鄉","name":"岳成診所","address":"宜蘭縣礁溪鄉中山路1段120號","phone":"03-9876586","Lng":"121.769659","Lat":"24.818508"}
    ,
    { "county":"宜蘭縣","town":"羅東鎮","name":"劉醫師小兒科診所","address":"宜蘭縣羅東鎮純精路二段229號","phone":"03-9518121","Lng":"121.763784","Lat":"24.679748"}
    ,
    { "county":"宜蘭縣","town":"羅東鎮","name":"藍正州小兒科診所","address":"宜蘭縣羅東鎮南門路20號","phone":"03-9531168","Lng":"121.76879","Lat":"24.673138"}
    ,
    { "county":"宜蘭縣","town":"蘇澳鎮","name":"吳昌達診所","address":"宜蘭縣蘇澳鎮海邊路141號","phone":"03-9955976","Lng":"121.86523","Lat":"24.583103"}
    ,
    { "county":"金門縣","town":"金城鎮","name":"禾心診所","address":"金門縣金城鎮北門里民生路9-7號","phone":"082-322180","Lng":"118.319877","Lat":"24.433705"}
    ,
    { "county":"金門縣","town":"金湖鎮","name":"康橋診所","address":"金門縣金湖鎮赤東路150號","phone":"082-330096","Lng":"118.410272","Lat":"24.438943"}
    ,
    { "county":"桃園市","town":"八德區","name":"郭淵進診所","address":"桃園市八德區興豐路650號","phone":"03-3732373","Lng":"121.295374","Lat":"24.930848"}
    ,
    { "county":"桃園市","town":"八德區","name":"萬耳鼻喉科診所","address":"桃園市八德區介壽路1段913號","phone":"03-3635616","Lng":"121.299738","Lat":"24.960097"}
    ,
    { "county":"桃園市","town":"八德區","name":"瀚文耳鼻喉科診所","address":"桃園市八德區桃鶯路5號","phone":"03-3641252","Lng":"121.326443","Lat":"24.971813"}
    ,
    { "county":"桃園市","town":"大園區","name":"懷德耳鼻喉科診所","address":"桃園市大園區中正東路19-1號","phone":"03-3868878","Lng":"121.198155","Lat":"25.064167"}
    ,
    { "county":"桃園市","town":"大溪區","name":"大桃園耳鼻喉科診所","address":"桃園市大溪區康莊路100號1樓","phone":"03-3870976","Lng":"121.288064","Lat":"24.88211"}
    ,
    { "county":"桃園市","town":"中壢區","name":"林浩健診所","address":"桃園市中壢區中央西路2段231-2號","phone":"03-4925866","Lng":"121.21253","Lat":"24.960963"}
    ,
    { "county":"桃園市","town":"中壢區","name":"黃文昌診所","address":"桃園市中壢區龍岡路二段123號","phone":"03-2841928","Lng":"121.229533","Lat":"24.94516"}
    ,
    { "county":"桃園市","town":"中壢區","name":"黃永輝診所","address":"桃園市中壢區中山路452號","phone":"03-4926750","Lng":"121.216748","Lat":"24.956893"}
    ,
    { "county":"桃園市","town":"中壢區","name":"黃曉生小兒科診所","address":"桃園市中壢區環中東路41、43號","phone":"03-4552725","Lng":"121.259995","Lat":"24.966341"}
    ,
    { "county":"桃園市","town":"中壢區","name":"詮順耳鼻喉科診所","address":"桃園市中壢區榮民路37號","phone":"03-4355300","Lng":"121.260998","Lat":"24.969743"}
    ,
    { "county":"桃園市","town":"中壢區","name":"聯心診所","address":"桃園市中壢區民族路五段310號","phone":"03-4205017","Lng":"121.170305","Lat":"24.958524"}
    ,
    { "county":"桃園市","town":"中壢區","name":"馨心親子耳鼻喉科診所","address":"桃園市中壢區中山東路二段536號1樓","phone":"03-4655665","Lng":"121.245499","Lat":"24.946721"}
    ,
    { "county":"桃園市","town":"平鎮區","name":"桃園市平鎮區衛生所","address":"桃園市平鎮區新富里振興路1號","phone":"03-4576624","Lng":"121.217776","Lat":"24.945929"}
    ,
    { "county":"桃園市","town":"桃園區","name":"吳鎮宇親子耳鼻喉科診所","address":"桃園市桃園區中山路824號1樓、826號1樓","phone":"03-3787876","Lng":"121.290395","Lat":"24.990915"}
    ,
    { "county":"桃園市","town":"桃園區","name":"李柏鋒診所","address":"桃園市桃園區中山路807號","phone":"03-2207480","Lng":"121.289171","Lat":"24.989895"}
    ,
    { "county":"桃園市","town":"桃園區","name":"柯福順耳鼻喉科診所","address":"桃園市桃園區中山路613號","phone":"03-2201122","Lng":"121.294167","Lat":"24.990919"}
    ,
    { "county":"桃園市","town":"桃園區","name":"曹景雄小兒科診所","address":"桃園市桃園區延平路113號","phone":"03-2183141","Lng":"121.314808","Lat":"24.9843"}
    ,
    { "county":"桃園市","town":"桃園區","name":"楊文彬耳鼻喉科診所","address":"桃園市桃園區春日路850號","phone":"03-3150628","Lng":"121.309381","Lat":"25.014804"}
    ,
    { "county":"桃園市","town":"桃園區","name":"鴻林耳鼻喉科診所","address":"桃園市桃園區中正路567號","phone":"03-3377088","Lng":"121.304908","Lat":"25.004038"}
    ,
    { "county":"桃園市","town":"龍潭區","name":"同安親子診所","address":"桃園市龍潭區中正路284號","phone":"03-4707278","Lng":"121.217474","Lat":"24.861999"}
    ,
    { "county":"桃園市","town":"龍潭區","name":"徐耳鼻喉科診所","address":"桃園市龍潭區北龍路251號","phone":"03-4899631","Lng":"121.216813","Lat":"24.867715"}
    ,
    { "county":"桃園市","town":"龍潭區","name":"黃啟昌小兒科診所","address":"桃園市龍潭區中正路286號","phone":"03-4798466","Lng":"121.217485","Lat":"24.861961"}
    ,
    { "county":"桃園市","town":"龜山區","name":"朱永恆診所","address":"桃園市龜山區中興路353號","phone":"03-3508182","Lng":"121.335055","Lat":"24.991947"}
    ,
    { "county":"桃園市","town":"龜山區","name":"卓越耳鼻喉科診所","address":"桃園市龜山區萬壽路1段107號1樓、109號1樓","phone":"02-82000580","Lng":"121.409094","Lat":"25.018923"}
    ,
    { "county":"桃園市","town":"龜山區","name":"微笑親子耳鼻喉科診所","address":"桃園市龜山區文化二路51號1樓","phone":"03-3180022","Lng":"121.367423","Lat":"25.056847"}
    ,
    { "county":"桃園市","town":"龜山區","name":"遠東耳鼻喉科診所","address":"桃園市龜山區萬壽路2段997號","phone":"03-3502720","Lng":"121.336781","Lat":"24.994712"}
    ,
    { "county":"桃園市","town":"蘆竹區","name":"佳音小兒科診所","address":"桃園市蘆竹區中正路359號","phone":"03-3127553","Lng":"121.290976","Lat":"25.049022"}
    ,
    { "county":"桃園市","town":"蘆竹區","name":"陳俊仁親子診所","address":"桃園市蘆竹區中正路128號","phone":"03-3215866","Lng":"121.292766","Lat":"25.046607"}
    ,
    { "county":"新竹市","town":"北區","name":"台安耳鼻喉科診所","address":"新竹市北區北大路466號","phone":"03-5246069","Lng":"120.960033","Lat":"24.80176"}
    ,
    { "county":"新竹市","town":"北區","name":"林敬堯親子診所","address":"新竹市北區湳雅街120號","phone":"03-5350123","Lng":"120.973052","Lat":"24.819742"}
    ,
    { "county":"新竹市","town":"北區","name":"祐庭耳鼻喉科診所","address":"新竹市北區光華街99-1號1樓","phone":"03-5351166","Lng":"120.971673","Lat":"24.818121"}
    ,
    { "county":"新竹市","town":"北區","name":"陳君毅小兒科診所","address":"新竹市北區西大路738號","phone":"03-5345705","Lng":"120.959078","Lat":"24.81003"}
    ,
    { "county":"新竹市","town":"北區","name":"陳建銘婦產科診所","address":"新竹市北區武陵路218巷58號","phone":"03-5337789","Lng":"120.970346","Lat":"24.820098"}
    ,
    { "county":"新竹市","town":"東區","name":"林安復耳鼻喉科診所","address":"新竹市東區中華路二段159號","phone":"03-5355890","Lng":"120.979828","Lat":"24.807053"}
    ,
    { "county":"新竹市","town":"東區","name":"城佑耳鼻喉科診所","address":"新竹市東區建中路59號","phone":"03-5748329","Lng":"120.994977","Lat":"24.801621"}
    ,
    { "county":"新竹市","town":"東區","name":"英慈耳鼻喉科診所","address":"新竹市東區立功里光復路二段308號","phone":"03-5722846","Lng":"120.998682","Lat":"24.795555"}
    ,
    { "county":"新竹市","town":"東區","name":"晨心兒科診所","address":"新竹市東區中央路163號","phone":"03-5322066","Lng":"120.972635","Lat":"24.808306"}
    ,
    { "county":"新竹市","town":"東區","name":"彭耳鼻喉科診所","address":"新竹市東區中央路195號","phone":"03-5428888","Lng":"120.973597","Lat":"24.808684"}
    ,
    { "county":"新竹市","town":"東區","name":"廖明厚小兒科診所","address":"新竹市東區民族路130號","phone":"03-5316665","Lng":"120.977604","Lat":"24.808036"}
    ,
    { "county":"新竹市","town":"東區","name":"賴閔宦小兒科診所","address":"新竹市東區南大路387-1號","phone":"03-5611238","Lng":"120.968352","Lat":"24.796582"}
    ,
    { "county":"新竹市","town":"東區","name":"謝德貴兒童診所","address":"新竹市東區光復路一段360-2號","phone":"03-6686666","Lng":"121.017581","Lat":"24.783526"}
    ,
    { "county":"新竹縣","town":"竹北市","name":"艾兒診所","address":"新竹縣竹北市福興東路二段140號","phone":"03-6586699","Lng":"121.028431","Lat":"24.814446"}
    ,
    { "county":"新竹縣","town":"竹北市","name":"哈哈小兒科診所","address":"新竹縣竹北市科大一路30號","phone":"03-6570590","Lng":"121.007836","Lat":"24.821787"}
    ,
    { "county":"新竹縣","town":"竹北市","name":"啄木鳥耳鼻喉科診所","address":"新竹縣竹北市莊敬三路39號1號","phone":"03-6586586","Lng":"121.024942","Lat":"24.822424"}
    ,
    { "county":"新竹縣","town":"竹北市","name":"游恆懿診所","address":"新竹縣竹北市縣政八街23號","phone":"03-5586721","Lng":"121.009949","Lat":"24.825628"}
    ,
    { "county":"新竹縣","town":"竹北市","name":"歌斐木耳鼻喉科診所","address":"新竹縣竹北市文興路二段7號1樓","phone":"03-6688081","Lng":"121.033244","Lat":"24.808409"}
    ,
    { "county":"新竹縣","town":"竹東鎮","name":"王尹弘耳鼻喉科診所","address":"新竹縣竹東鎮長春路三段5號","phone":"03-5941175","Lng":"121.086465","Lat":"24.740089"}
    ,
    { "county":"新竹縣","town":"竹東鎮","name":"崇光小兒專科診所","address":"新竹縣竹東鎮長春路三段188號1樓","phone":"03 -5959878","Lng":"121.083378","Lat":"24.743969"}
    ,
    { "county":"新竹縣","town":"湖口鄉","name":"朱先營診所","address":"新竹縣湖口鄉中正路一段27號","phone":"03-5998325","Lng":"121.044863","Lat":"24.9026"}
    ,
    { "county":"新竹縣","town":"新豐鄉","name":"吳家仁小兒科診所","address":"新竹縣新豐鄉新興路245號","phone":"03-5575302","Lng":"120.99672","Lat":"24.870322"}
    ,
    { "county":"新竹縣","town":"新豐鄉","name":"羅世績診所","address":"新竹縣新豐鄉建興路一段154-10號","phone":"03-5593399","Lng":"120.994546","Lat":"24.874811"}
    ,
    { "county":"新竹縣","town":"橫山鄉","name":"新竹縣橫山鄉衛生所","address":"新竹縣橫山鄉新興街141巷10號","phone":"03-5932004","Lng":"121.13928","Lat":"24.717562"}
    ,
    { "county":"新竹縣","town":"橫山鄉","name":"橫山庄診所","address":"新竹縣橫山鄉橫山街一段216號","phone":"03-5931395","Lng":"121.115719","Lat":"24.718969"}
    ,
    { "county":"苗栗縣","town":"三義鄉","name":"苗栗縣三義鄉衛生所","address":"苗栗縣三義鄉復興路45號","phone":"037-872014","Lng":"120.770769","Lat":"24.413381"}
    ,
    { "county":"苗栗縣","town":"公館鄉","name":"祥恩診所","address":"苗栗縣公館鄉大同路80號","phone":"037-220118","Lng":"120.828067","Lat":"24.500302"}
    ,
    { "county":"苗栗縣","town":"竹南鎮","name":"宏安診所","address":"苗栗縣竹南鎮光復路265號","phone":"037-466958;037-466689","Lng":"120.879324","Lat":"24.691393"}
    ,
    { "county":"苗栗縣","town":"竹南鎮","name":"苗栗縣竹南鎮衛生所","address":"苗栗縣竹南鎮大營路209號","phone":"037-470152","Lng":"120.872536","Lat":"24.687723"}
    ,
    { "county":"苗栗縣","town":"後龍鎮","name":"後龍診所","address":"苗栗縣後龍鎮中山路123號","phone":"037-773088","Lng":"120.791123","Lat":"24.613779"}
    ,
    { "county":"苗栗縣","town":"後龍鎮","name":"苗栗縣後龍鎮衛生所","address":"苗栗縣後龍鎮大庄里光華路375號","phone":"037-722008","Lng":"120.789516","Lat":"24.611677"}
    ,
    { "county":"苗栗縣","town":"苑裡鎮","name":"良宜診所","address":"苗栗縣苑裡鎮建國路106號","phone":"037-860937","Lng":"120.65262","Lat":"24.444302"}
    ,
    { "county":"苗栗縣","town":"苗栗市","name":"吳昆展小兒科診所","address":"苗栗縣苗栗市中正路71號","phone":"037-265532","Lng":"120.824523","Lat":"24.568276"}
    ,
    { "county":"苗栗縣","town":"苗栗市","name":"苗栗縣苗栗市衛生所","address":"苗栗縣苗栗市建民街28號","phone":"037-277129","Lng":"120.824894","Lat":"24.565957"}
    ,
    { "county":"苗栗縣","town":"苗栗市","name":"詹求孚診所","address":"苗栗縣苗栗市中正路468號","phone":"037-320722","Lng":"120.821572","Lat":"24.559566"}
    ,
    { "county":"苗栗縣","town":"泰安鄉","name":"苗栗縣泰安鄉衛生所","address":"苗栗縣泰安鄉清安村洗水坑二鄰72號","phone":"037-941054","Lng":"120.908287","Lat":"24.447223"}
    ,
    { "county":"苗栗縣","town":"通霄鎮","name":"苗栗縣通霄鎮衛生所","address":"苗栗縣通霄鎮中正路16-2號","phone":"037-752048","Lng":"120.682016","Lat":"24.490403"}
    ,
    { "county":"苗栗縣","town":"頭份市","name":"祥安診所","address":"苗栗縣頭份市中華路928號","phone":"037-664486","Lng":"120.907466","Lat":"24.685683"}
    ,
    { "county":"苗栗縣","town":"頭屋鄉","name":"苗栗縣頭屋鄉衛生所","address":"苗栗縣頭屋鄉頭屋村13鄰中山街54號","phone":"037-253534","Lng":"120.850295","Lat":"24.576104"}
    ,
    { "county":"臺中市","town":"大甲區","name":"力倫診所","address":"臺中市大甲區蔣公路246號","phone":"04-26805889","Lng":"120.619424","Lat":"24.347256"}
    ,
    { "county":"臺中市","town":"大里區","name":"李文軒耳鼻喉科診所","address":"臺中市大里區益民路二段271號","phone":"04-24872898","Lng":"120.683746","Lat":"24.110958"}
    ,
    { "county":"臺中市","town":"大里區","name":"陳建利診所","address":"臺中市大里區成功路387號","phone":"04-24935145","Lng":"120.702635","Lat":"24.08817"}
    ,
    { "county":"臺中市","town":"大里區","name":"陳祥雪小兒科診所","address":"臺中市大里區新生西路42號","phone":"04-24850052","Lng":"120.688075","Lat":"24.104924"}
    ,
    { "county":"臺中市","town":"大里區","name":"廖正雄小兒科診所","address":"臺中市大里區中興路一段167號","phone":"04-24938497","Lng":"120.695592","Lat":"24.088096"}
    ,
    { "county":"臺中市","town":"大雅區","name":"林釗尚小兒科診所","address":"臺中市大雅區大雅路151號","phone":"04-25600313","Lng":"120.647465","Lat":"24.225494"}
    ,
    { "county":"臺中市","town":"太平區","name":"弘鑫耳鼻喉科診所","address":"臺中市太平區樹孝路202號","phone":"04-23933595","Lng":"120.717871","Lat":"24.152802"}
    ,
    { "county":"臺中市","town":"太平區","name":"建志耳鼻喉科診所","address":"臺中市太平區中興路110號","phone":"04-22766899","Lng":"120.715258","Lat":"24.127119"}
    ,
    { "county":"臺中市","town":"北屯區","name":"張廣智耳鼻喉科診所","address":"臺中市北屯區中清路二段531號","phone":"04-22924703","Lng":"120.66592","Lat":"24.181868"}
    ,
    { "county":"臺中市","town":"北屯區","name":"優幼診所","address":"臺中市北屯區北屯路435-16號","phone":"04-22493636","Lng":"120.700119","Lat":"24.178538"}
    ,
    { "county":"臺中市","town":"北區","name":"朱永昌內科小兒科診所","address":"臺中市北區三民路三段210之10號","phone":"04-22253269","Lng":"120.686055","Lat":"24.153918"}
    ,
    { "county":"臺中市","town":"北區","name":"秀慧診所","address":"臺中市北區忠太東路58-12號","phone":"04-22031830","Lng":"120.668225","Lat":"24.162336"}
    ,
    { "county":"臺中市","town":"北區","name":"和康耳鼻喉科診所","address":"臺中市北區健行路870-1號1樓","phone":"04-22035185","Lng":"120.668622","Lat":"24.15941"}
    ,
    { "county":"臺中市","town":"北區","name":"家昌耳鼻喉科診所","address":"臺中市北區陜西路62號1樓","phone":"04-22993888","Lng":"120.6661832","Lat":"24.1686604"}
    ,
    { "county":"臺中市","town":"北區","name":"展弘耳鼻喉科診所","address":"臺中市北區漢口路四段322號","phone":"04-22307388","Lng":"120.683998","Lat":"24.166855"}
    ,
    { "county":"臺中市","town":"北區","name":"張右川診所","address":"臺中市北區興進路211-2號","phone":"04-22329988","Lng":"120.692111","Lat":"24.155491"}
    ,
    { "county":"臺中市","town":"北區","name":"祥祐診所","address":"臺中市北區三民路三段348號","phone":"04-22315688","Lng":"120.689942","Lat":"24.15762"}
    ,
    { "county":"臺中市","town":"北區","name":"謝佳璋小兒科診所","address":"臺中市北區漢口路四段357號號","phone":"04-22355918","Lng":"120.682408","Lat":"24.167185"}
    ,
    { "county":"臺中市","town":"西屯區","name":"平安診所","address":"臺中市西屯區大墩路917-1號","phone":"04-23277206","Lng":"120.650535","Lat":"24.157095"}
    ,
    { "county":"臺中市","town":"西屯區","name":"朱永成耳鼻喉科診所","address":"臺中市西屯區西屯路三段159之55號","phone":"04-24618421","Lng":"120.617898","Lat":"24.188003"}
    ,
    { "county":"臺中市","town":"西屯區","name":"和賢耳鼻喉科診所","address":"臺中市西屯區中清路二段1386巷23號","phone":"04-24261802","Lng":"120.658553","Lat":"24.196147"}
    ,
    { "county":"臺中市","town":"西屯區","name":"林鴻任耳鼻喉科診所","address":"臺中市西屯區青海路一段116號","phone":"04-23111518","Lng":"120.654302","Lat":"24.164942"}
    ,
    { "county":"臺中市","town":"西屯區","name":"陳亮宇耳鼻喉科診所","address":"臺中市西屯區大墩路995號","phone":"04-23203888","Lng":"120.652552","Lat":"24.160274"}
    ,
    { "county":"臺中市","town":"西區","name":"吳東洀小兒科診所","address":"臺中市西區美村路一段362號","phone":"04-23029672","Lng":"120.661461","Lat":"24.144904"}
    ,
    { "county":"臺中市","town":"西區","name":"阮春閔小兒科診所","address":"臺中市西區南屯路一段148號","phone":"04-23757456","Lng":"120.66079","Lat":"24.13285"}
    ,
    { "county":"臺中市","town":"西區","name":"佳慶診所","address":"臺中市西區東興路三段272之1號","phone":"04-23208989","Lng":"120.653684","Lat":"24.155224"}
    ,
    { "county":"臺中市","town":"西區","name":"陳正和耳鼻喉科診所","address":"臺中市西區向上路一段226號","phone":"04-23012729","Lng":"120.659231","Lat":"24.146909"}
    ,
    { "county":"臺中市","town":"西區","name":"曾憲彰耳鼻喉科診所","address":"臺中市西區五權西路一段275號","phone":"04-23786066","Lng":"120.655309","Lat":"24.139897"}
    ,
    { "county":"臺中市","town":"西區","name":"維一診所","address":"臺中市西區太原路一段220號","phone":"04-23139987","Lng":"120.662164","Lat":"24.163152"}
    ,
    { "county":"臺中市","town":"沙鹿區","name":"小太陽小兒科診所","address":"臺中市沙鹿區鎮南路二段631號","phone":"04-26365757","Lng":"120.559135","Lat":"24.234493"}
    ,
    { "county":"臺中市","town":"沙鹿區","name":"何秋燕皮膚科診所","address":"臺中市沙鹿區沙田路53之5號","phone":"04-26362982","Lng":"120.558578","Lat":"24.232405"}
    ,
    { "county":"臺中市","town":"沙鹿區","name":"真善美診所","address":"臺中市沙鹿區成功東街119號","phone":"04-26656037","Lng":"120.564747","Lat":"24.24184"}
    ,
    { "county":"臺中市","town":"東區","name":"華幼診所","address":"臺中市東區進化路211號","phone":"04-23600099","Lng":"120.694164","Lat":"24.149657"}
    ,
    { "county":"臺中市","town":"東勢區","name":"長頸鹿小兒科診所","address":"臺中市東勢區豐勢路418號","phone":"04-25773481","Lng":"120.829215","Lat":"24.255316"}
    ,
    { "county":"臺中市","town":"東勢區","name":"維恩耳鼻喉科診所","address":"臺中市東勢區豐勢路372號","phone":"04-25885413","Lng":"120.829571","Lat":"24.254346"}
    ,
    { "county":"臺中市","town":"南屯區","name":"主悅診所","address":"臺中市南屯區干城街269號","phone":"04-22540711","Lng":"120.632392","Lat":"24.152346"}
    ,
    { "county":"臺中市","town":"南屯區","name":"邢志宇耳鼻喉科診所","address":"臺中市南屯區南屯路二段252號","phone":"04-24735806","Lng":"120.649103","Lat":"24.136986"}
    ,
    { "county":"臺中市","town":"南屯區","name":"忠勇診所","address":"臺中市南屯區忠勇路67之3號1、2樓","phone":"04-23826625","Lng":"120.614683","Lat":"24.145167"}
    ,
    { "county":"臺中市","town":"南屯區","name":"林耳鼻喉科診所","address":"臺中市南屯區東興路2段50號","phone":"04-24751525","Lng":"120.653195","Lat":"24.137032"}
    ,
    { "county":"臺中市","town":"南屯區","name":"張家強診所","address":"臺中市南屯區黎明路二段490號","phone":"04-22591683","Lng":"120.635124","Lat":"24.15311"}
    ,
    { "county":"臺中市","town":"南屯區","name":"誠心親子耳鼻喉科診所","address":"臺中市南屯區東興路二段33號2樓","phone":"04-24719001","Lng":"120.652894","Lat":"24.137138"}
    ,
    { "county":"臺中市","town":"南屯區","name":"親子診所","address":"臺中市南屯區黎明路一段1091號","phone":"04-23862626","Lng":"120.637752","Lat":"24.139341"}
    ,
    { "county":"臺中市","town":"南屯區","name":"薛凱中診所","address":"臺中市南屯區大墩路383號","phone":"04-24716898","Lng":"120.649685","Lat":"24.145721"}
    ,
    { "county":"臺中市","town":"南屯區","name":"蘇德慶診所","address":"臺中市南屯區東興路二段57號1樓","phone":"04-24717572","Lng":"120.652835","Lat":"24.138047"}
    ,
    { "county":"臺中市","town":"南區","name":"林忠立診所","address":"臺中市南區美村南路58號","phone":"04-22619948","Lng":"120.666978","Lat":"24.117615"}
    ,
    { "county":"臺中市","town":"南區","name":"陳鉉煒小兒科診所","address":"臺中市南區臺中路156號","phone":"04-22861566","Lng":"120.68436","Lat":"24.131094"}
    ,
    { "county":"臺中市","town":"烏日區","name":"德昌小兒科診所","address":"臺中市烏日區中山路一段335號","phone":"04-23372686","Lng":"120.641248","Lat":"24.108509"}
    ,
    { "county":"臺中市","town":"清水區","name":"林玉彪診所","address":"臺中市清水區光華路135號","phone":"04-26233880","Lng":"120.573981","Lat":"24.268232"}
    ,
    { "county":"臺中市","town":"清水區","name":"清水區向陽耳鼻喉科診所","address":"臺中市清水區中山路243-2號","phone":"04-26228595","Lng":"120.575149","Lat":"24.268899"}
    ,
    { "county":"臺中市","town":"清水區","name":"清水祥和診所","address":"臺中市清水區五權東路81號","phone":"04-26232191","Lng":"120.573849","Lat":"24.27504"}
    ,
    { "county":"臺中市","town":"清水區","name":"陳振昆診所","address":"臺中市清水區中山路127號","phone":"04-26225205","Lng":"120.573352","Lat":"24.264326"}
    ,
    { "county":"臺中市","town":"潭子區","name":"佳佑診所","address":"臺中市潭子區勝利路319號","phone":"04-25336888","Lng":"120.700407","Lat":"24.214084"}
    ,
    { "county":"臺中市","town":"潭子區","name":"博文耳鼻喉科診所","address":"臺中市潭子區中山路1段99號1樓","phone":"04-25320707","Lng":"120.702291","Lat":"24.193261"}
    ,
    { "county":"臺中市","town":"豐原區","name":"吳志修耳鼻喉科診所","address":"臺中市豐原區中山路347號","phone":"04-25120295","Lng":"120.715006","Lat":"24.249019"}
    ,
    { "county":"臺中市","town":"豐原區","name":"林大丕小兒科診所","address":"臺中市豐原區三民路130號","phone":"04-25282345","Lng":"120.719519","Lat":"24.253601"}
    ,
    { "county":"臺中市","town":"豐原區","name":"許慶芳耳鼻喉科診所","address":"臺中市豐原區中山路506號","phone":"04-25292857","Lng":"120.714842","Lat":"24.250142"}
    ,
    { "county":"彰化縣","town":"二林鎮","name":"二林綜祐診所","address":"彰化縣二林鎮中正路6號","phone":"04-8952991","Lng":"120.369393","Lat":"23.899452"}
    ,
    { "county":"彰化縣","town":"二林鎮","name":"明穎耳鼻喉科診所","address":"彰化縣二林鎮仁愛路676號","phone":"04-8969662","Lng":"120.364318","Lat":"23.902161"}
    ,
    { "county":"彰化縣","town":"大村鄉","name":"五行診所","address":"彰化縣大村鄉村山腳路2-27號","phone":"04-8527603","Lng":"120.589759","Lat":"23.982033"}
    ,
    { "county":"彰化縣","town":"大村鄉","name":"黃建成診所","address":"彰化縣大村鄉茄苳路一段235號","phone":"04-8524074","Lng":"120.544949","Lat":"23.999406"}
    ,
    { "county":"彰化縣","town":"北斗鎮","name":"蔡瑞聰耳鼻喉科診所","address":"彰化縣北斗鎮中華路197號","phone":"04-8875577","Lng":"120.523984","Lat":"23.872952"}
    ,
    { "county":"彰化縣","town":"和美鎮","name":"家禮診所","address":"彰化縣和美鎮仁美路186號","phone":"04-7551829","Lng":"120.497973","Lat":"24.108523"}
    ,
    { "county":"彰化縣","town":"和美鎮","name":"蕭國隆小兒科診所","address":"彰化縣和美鎮彰美路5段255號","phone":"04-7553021","Lng":"120.498058","Lat":"24.1097259"}
    ,
    { "county":"彰化縣","town":"社頭鄉","name":"景新診所","address":"彰化縣社頭鄉社頭村清水岩路333號","phone":"04-8721227","Lng":"120.590093","Lat":"23.899683"}
    ,
    { "county":"彰化縣","town":"花壇鄉","name":"天祐診所","address":"彰化縣花壇鄉花壇街112號1樓","phone":"04-7883678","Lng":"120.539103","Lat":"24.022337"}
    ,
    { "county":"彰化縣","town":"花壇鄉","name":"志元診所","address":"彰化縣花壇鄉長沙村中正路118號","phone":"04-7878892","Lng":"120.544174","Lat":"24.027218"}
    ,
    { "county":"彰化縣","town":"員林市","name":"育英診所","address":"彰化縣員林市育英路37-12號","phone":"04-8331458","Lng":"120.575182","Lat":"23.959271"}
    ,
    { "county":"彰化縣","town":"員林市","name":"涂嘉桂診所","address":"彰化縣員林市中正路113號","phone":"04-8360898","Lng":"120.575633","Lat":"23.95192"}
    ,
    { "county":"彰化縣","town":"員林市","name":"慈安小兒科診所","address":"彰化縣員林市光明街163號","phone":"04-8369578","Lng":"120.572335","Lat":"23.95427"}
    ,
    { "county":"彰化縣","town":"鹿港鎮","name":"宏文小兒科診所","address":"彰化縣鹿港鎮龍山里中山路3-1號","phone":"04-7779489","Lng":"120.436705","Lat":"24.050363"}
    ,
    { "county":"彰化縣","town":"鹿港鎮","name":"豐安診所","address":"彰化縣鹿港鎮海浴路11之1號","phone":"04-7746395","Lng":"120.429101","Lat":"24.061138"}
    ,
    { "county":"彰化縣","town":"溪湖鎮","name":"安泓耳鼻喉專科診所","address":"彰化縣溪湖鎮彰水路三段492號","phone":"04-8828119","Lng":"120.480154","Lat":"23.964186"}
    ,
    { "county":"彰化縣","town":"溪湖鎮","name":"許立德小兒科診所","address":"彰化縣溪湖鎮培英路42號","phone":"04-8856518","Lng":"120.481862","Lat":"23.967711"}
    ,
    { "county":"彰化縣","town":"彰化市","name":"余偉傑小兒科診所","address":"彰化縣彰化市曉陽路188號","phone":"04-7289786","Lng":"120.537546","Lat":"24.073065"}
    ,
    { "county":"彰化縣","town":"彰化市","name":"吳桂芬診所","address":"彰化縣彰化市民生路161號1樓","phone":"04-7280638","Lng":"120.542818","Lat":"24.078641"}
    ,
    { "county":"彰化縣","town":"彰化市","name":"莊永勳耳鼻喉科診所","address":"彰化縣彰化市曉陽路200號","phone":"04-7201551","Lng":"120.537301","Lat":"24.073101"}
    ,
    { "county":"彰化縣","town":"彰化市","name":"許小兒科診所","address":"彰化縣彰化市信義里中正路一段452號1樓","phone":"04-7222279","Lng":"120.542134","Lat":"24.082571"}
    ,
    { "county":"彰化縣","town":"彰化市","name":"陽光小兒科診所","address":"彰化縣彰化市彰南路二段219號","phone":"04-7320210","Lng":"120.581536","Lat":"24.084854"}
    ,
    { "county":"彰化縣","town":"彰化市","name":"聖比安耳鼻喉科診所","address":"彰化縣彰化市華山路99、101號","phone":"04-7203595;04-7203695","Lng":"120.540441","Lat":"24.074722"}
    ,
    { "county":"彰化縣","town":"福興鄉","name":"福興林診所","address":"彰化縣福興鄉沿海路3段204號1樓","phone":"04-7708896","Lng":"120.413562","Lat":"24.029253"}
    ,
    { "county":"彰化縣","town":"福興鄉","name":"慶安診所","address":"彰化縣福興鄉沿海路三段275號1樓","phone":"04-7704276","Lng":"120.414411","Lat":"24.030403"}
    ,
    { "county":"南投縣","town":"仁愛鄉","name":"南投縣仁愛鄉衛生所","address":"南投縣仁愛鄉大同村五福巷17號","phone":"049-2802341","Lng":"121.134324","Lat":"24.024304"}
    ,
    { "county":"南投縣","town":"水里鄉","name":"信望愛診所","address":"南投縣水里鄉民族路362號","phone":"049-2770000","Lng":"120.854941","Lat":"23.813642"}
    ,
    { "county":"南投縣","town":"名間鄉","name":"南投縣名間鄉衛生所","address":"南投縣名間鄉彰南路42號","phone":"049-2732135","Lng":"120.702853","Lat":"23.838518"}
    ,
    { "county":"南投縣","town":"竹山鎮","name":"智瑤小兒科診所","address":"南投縣竹山鎮集山路三段879號","phone":"049-2652288","Lng":"120.683538","Lat":"23.75718"}
    ,
    { "county":"南投縣","town":"信義鄉","name":"慶安診所","address":"南投縣信義鄉新開巷100號","phone":"049-2791850","Lng":"120.854663","Lat":"23.6962"}
    ,
    { "county":"南投縣","town":"南投市","name":"陳加偉耳鼻喉科診所","address":"南投縣南投市復興路109號","phone":"049-2200679","Lng":"120.687481","Lat":"23.90483"}
    ,
    { "county":"南投縣","town":"南投市","name":"黃子卿小兒科診所","address":"南投縣南投市民族路123號1、2樓","phone":"049-2200623","Lng":"120.690844","Lat":"23.909966"}
    ,
    { "county":"南投縣","town":"埔里鎮","name":"安麗小兒科內科診所","address":"南投縣埔里鎮中山路二段262號","phone":"049-2991030","Lng":"120.968566","Lat":"23.966472"}
    ,
    { "county":"南投縣","town":"埔里鎮","name":"陳宏麟診所","address":"南投縣埔里鎮南昌街221號","phone":"049-2900303","Lng":"120.964449","Lat":"23.966339"}
    ,
    { "county":"南投縣","town":"草屯鎮","name":"洪瑞成小兒科診所","address":"南投縣草屯鎮中山街38號","phone":"049-2323151","Lng":"120.682605","Lat":"23.975121"}
    ,
    { "county":"南投縣","town":"國姓鄉","name":"安鴻診所","address":"南投縣國姓鄉石門村中興路130號","phone":"049-2722778","Lng":"120.856534","Lat":"24.041278"}
    ,
    { "county":"南投縣","town":"集集鎮","name":"南投縣集集鎮衛生所","address":"南投縣集集鎮民生路106號","phone":"049-2762015","Lng":"120.78662","Lat":"23.828896"}
    ,
    { "county":"雲林縣","town":"斗六市","name":"小幼苗小兒科診所","address":"雲林縣斗六市中山路311號","phone":"05-5362982","Lng":"120.538533","Lat":"23.701644"}
    ,
    { "county":"雲林縣","town":"斗南鎮","name":"小熊小兒科診所","address":"雲林縣斗南鎮南昌路140號","phone":"05-5966775","Lng":"120.478489","Lat":"23.673196"}
    ,
    { "county":"雲林縣","town":"斗南鎮","name":"宏佑診所","address":"雲林縣斗南鎮文元街86號","phone":"05-5950456","Lng":"120.476705","Lat":"23.675246"}
    ,
    { "county":"雲林縣","town":"北港鎮","name":"德豐診所","address":"雲林縣北港鎮公園路12號","phone":"05-7835909","Lng":"120.302993","Lat":"23.573502"}
    ,
    { "county":"雲林縣","town":"西螺鎮","name":"長榮診所","address":"雲林縣西螺鎮建興路148號","phone":"05-5876222","Lng":"120.459365","Lat":"23.797663"}
    ,
    { "county":"雲林縣","town":"西螺鎮","name":"茂杉診所","address":"雲林縣西螺鎮正興里福興路141號","phone":"05-5862213","Lng":"120.460577","Lat":"23.798473"}
    ,
    { "county":"雲林縣","town":"虎尾鎮","name":"太安診所","address":"雲林縣虎尾鎮公安路178-18號1樓","phone":"05-6326650","Lng":"120.433819","Lat":"23.709848"}
    ,
    { "county":"雲林縣","town":"虎尾鎮","name":"偉哲內小兒科診所","address":"雲林縣虎尾鎮中山里仁愛路67號","phone":"05-6323409;05-6328683","Lng":"120.434228","Lat":"23.708949"}
    ,
    { "county":"雲林縣","town":"麥寮鄉","name":"台全診所","address":"雲林縣麥寮鄉新興路16號","phone":"05-6930099","Lng":"120.252374","Lat":"23.74704"}
    ,
    { "county":"嘉義市","town":"西區","name":"黃思超小兒科診所","address":"嘉義市西區民族路632號","phone":"05-2163232","Lng":"120.445049","Lat":"23.47569"}
    ,
    { "county":"嘉義市","town":"西區","name":"嘉安婦幼診所","address":"嘉義市西區友愛路390號","phone":"05-2335515","Lng":"120.433698","Lat":"23.486732"}
    ,
    { "county":"嘉義市","town":"東區","name":"林育興耳鼻喉科診所","address":"嘉義市東區吳鳳北路133號","phone":"05-2288568","Lng":"120.45338","Lat":"23.47701"}
    ,
    { "county":"嘉義市","town":"東區","name":"葉弘貴小兒科診所","address":"嘉義市東區中山路253號","phone":"05-2253863","Lng":"120.45134","Lat":"23.480499"}
    ,
    { "county":"嘉義縣","town":"中埔鄉","name":"台大佳醫診所","address":"嘉義縣中埔鄉金蘭村頂山門34-51號","phone":"05-2399199","Lng":"120.493889","Lat":"23.446431"}
    ,
    { "county":"嘉義縣","town":"太保市","name":"定安診所","address":"嘉義縣太保市南新里中山路一段311-5號","phone":"05-2371777","Lng":"120.378207","Lat":"23.498525"}
    ,
    { "county":"嘉義縣","town":"太保市","name":"嘉義縣立慢性病防治所","address":"嘉義縣太保市祥和二路東段3號","phone":"05-3620571#134","Lng":"120.292894","Lat":"23.457536"}
    ,
    { "county":"嘉義縣","town":"民雄鄉","name":"賴政友診所","address":"嘉義縣民雄鄉東榮村和平路9號","phone":"05-2266550","Lng":"120.431199","Lat":"23.555419"}
    ,
    { "county":"嘉義縣","town":"朴子市","name":"尚群診所","address":"嘉義縣朴子市海通路98之8號","phone":"05-3705678","Lng":"120.240253","Lat":"23.463915"}
    ,
    { "county":"嘉義縣","town":"朴子市","name":"員祐耳鼻喉科診所","address":"嘉義縣朴子市新榮路90號","phone":"05-3661590","Lng":"120.245234","Lat":"23.461248"}
    ,
    { "county":"嘉義縣","town":"竹崎鄉","name":"嘉義縣竹崎鄉衛生所","address":"嘉義縣竹崎鄉文化路19-1號","phone":"05-2611264","Lng":"120.552015","Lat":"23.521512"}
    ,
    { "county":"嘉義縣","town":"新港鄉","name":"昌模小兒科診所","address":"嘉義縣新港鄉福德路20號","phone":"05-3740369","Lng":"120.345586","Lat":"23.556584"}
    ,
    { "county":"臺南市","town":"中西區","name":"李朝泰小兒科診所","address":"臺南市中西區成功路319號","phone":"06-2256618","Lng":"120.200418","Lat":"22.999849"}
    ,
    { "county":"臺南市","town":"中西區","name":"紀冠廷診所","address":"臺南市中西區青年路119號","phone":"06-2263931","Lng":"120.208603","Lat":"22.992137"}
    ,
    { "county":"臺南市","town":"中西區","name":"陳俊達小兒科診所","address":"臺南市中西區中山路21號","phone":"06-2221867","Lng":"120.205776","Lat":"22.993131"}
    ,
    { "county":"臺南市","town":"仁德區","name":"三華診所","address":"臺南市仁德區太子路142號","phone":"06-2731826","Lng":"120.263112","Lat":"22.991444"}
    ,
    { "county":"臺南市","town":"仁德區","name":"協和家醫科診所","address":"臺南市仁德區中正路三段79號","phone":"06-2701507","Lng":"120.252574","Lat":"22.973896"}
    ,
    { "county":"臺南市","town":"仁德區","name":"趙俊凱耳鼻喉科診所","address":"臺南市仁德區中正路二段1092號","phone":"06-2491886","Lng":"120.25251","Lat":"22.969185"}
    ,
    { "county":"臺南市","town":"六甲區","name":"民生診所","address":"臺南市六甲區六甲里中正路531號","phone":"06-6986015","Lng":"120.351375","Lat":"23.231106"}
    ,
    { "county":"臺南市","town":"六甲區","name":"甲和診所","address":"臺南市六甲區六甲里建國街74號","phone":"06-6991393","Lng":"120.3501256","Lat":"23.2309362"}
    ,
    { "county":"臺南市","town":"北門區","name":"大立診所","address":"臺南市北門區北門里72號","phone":"06-7860090","Lng":"120.124859","Lat":"23.267258"}
    ,
    { "county":"臺南市","town":"北區","name":"王界三小兒科診所","address":"臺南市北區文賢路1068號","phone":"06-3583770","Lng":"120.193831","Lat":"23.014893"}
    ,
    { "county":"臺南市","town":"北區","name":"海安小兒科診所","address":"臺南市北區海安路3段761號","phone":"06-3589696","Lng":"120.200269","Lat":"23.012872"}
    ,
    { "county":"臺南市","town":"北區","name":"張金石小兒科診所","address":"臺南市北區公園路191號","phone":"06-2206228","Lng":"120.207567","Lat":"22.999265"}
    ,
    { "county":"臺南市","town":"北區","name":"劉伊薰小兒科診所","address":"臺南市北區北安路一段259號","phone":"06-2832111","Lng":"120.20677","Lat":"23.018995"}
    ,
    { "county":"臺南市","town":"永康區","name":"阮嵩翔耳鼻喉科診所","address":"臺南市永康區大灣路930號","phone":"06-2728333","Lng":"120.255268","Lat":"22.999642"}
    ,
    { "county":"臺南市","town":"永康區","name":"林獻諒小兒科診所","address":"臺南市永康區中華路347號","phone":"06-3134761","Lng":"120.233726","Lat":"23.008213"}
    ,
    { "county":"臺南市","town":"永康區","name":"富ㄦ康小兒科診所","address":"臺南市永康區中山路55號","phone":"06-2318600","Lng":"120.256244","Lat":"23.029212"}
    ,
    { "county":"臺南市","town":"永康區","name":"德安小兒科診所","address":"臺南市永康區永大路二段1538號","phone":"06-2032000","Lng":"120.260998","Lat":"23.025331"}
    ,
    { "county":"臺南市","town":"永康區","name":"蔡尚均小兒科診所","address":"臺南市永康區中華路675之1號","phone":"06-3020188","Lng":"120.228954","Lat":"23.015964"}
    ,
    { "county":"臺南市","town":"玉井區","name":"双美診所","address":"臺南市玉井區太子街39巷8號","phone":"06-5746996","Lng":"120.460641","Lat":"23.122762"}
    ,
    { "county":"臺南市","town":"白河區","name":"安聯診所","address":"臺南市白河區富民路62號","phone":"06-6852555","Lng":"120.415953","Lat":"23.344826"}
    ,
    { "county":"臺南市","town":"安平區","name":"石門診所","address":"臺南市安平區安平路21號","phone":"06-2242666","Lng":"120.167862","Lat":"22.998996"}
    ,
    { "county":"臺南市","town":"安平區","name":"吳國堯小兒科診所","address":"臺南市安平區文平路438號","phone":"06-2933358","Lng":"120.178932","Lat":"22.993589"}
    ,
    { "county":"臺南市","town":"安定區","name":"臺南市安定區衛生所","address":"臺南市安定區安定59-1號","phone":"06-5922022","Lng":"120.237375","Lat":"23.121552"}
    ,
    { "county":"臺南市","town":"安南區","name":"李宗勳耳鼻喉科診所","address":"臺南市安南區海佃路一段282號","phone":"06-2502345","Lng":"120.191365","Lat":"23.026344"}
    ,
    { "county":"臺南市","town":"安南區","name":"陳昱成耳鼻喉科診所","address":"臺南市安南區海佃路一段196號","phone":"06-2800178","Lng":"120.191692","Lat":"23.02494"}
    ,
    { "county":"臺南市","town":"安南區","name":"魏大倫耳鼻喉科診所","address":"臺南市安南區安和路一段356號","phone":"06-2568119","Lng":"120.212543","Lat":"23.03328"}
    ,
    { "county":"臺南市","town":"西港區","name":"千日好診所","address":"臺南市西港區中山路350號","phone":"06-7954509","Lng":"120.20335","Lat":"23.122012"}
    ,
    { "county":"臺南市","town":"佳里區","name":"佳安診所","address":"臺南市佳里區中山路188號","phone":"06-7237768","Lng":"120.177228","Lat":"23.158967"}
    ,
    { "county":"臺南市","town":"佳里區","name":"劉亞伯耳鼻喉科診所","address":"臺南市佳里區延平路353號","phone":"06-7236765","Lng":"120.178078","Lat":"23.162785"}
    ,
    { "county":"臺南市","town":"東區","name":"侯世婷小兒科診所","address":"臺南市東區崇善路511號","phone":"06-3369131","Lng":"120.229305","Lat":"22.974353"}
    ,
    { "county":"臺南市","town":"東區","name":"徐慶鐘小兒科診所","address":"臺南市東區長榮路二段306號","phone":"06-2369954","Lng":"120.221654","Lat":"22.991342"}
    ,
    { "county":"臺南市","town":"東區","name":"陳勃旭耳鼻喉科診所","address":"臺南市東區崇善路438號","phone":"06-3358868","Lng":"120.22918","Lat":"22.973756"}
    ,
    { "county":"臺南市","town":"東區","name":"陳淑玲林原弘小兒科診所","address":"臺南市東區崇學路229號","phone":"06-2900255","Lng":"120.2221525","Lat":"22.9812838"}
    ,
    { "county":"臺南市","town":"南區","name":"林大傑耳鼻喉科診所","address":"臺南市南區金華路二段171號","phone":"06-2915660","Lng":"120.191295","Lat":"22.981265"}
    ,
    { "county":"臺南市","town":"南區","name":"張祐禎家庭醫學科診所","address":"臺南市南區中華南路二段72號","phone":"06-2920909","Lng":"120.193805","Lat":"22.962208"}
    ,
    { "county":"臺南市","town":"柳營區","name":"蔡瑞頒診所","address":"臺南市柳營區光福里成功街210號","phone":"06-6224466","Lng":"120.313373","Lat":"23.278623"}
    ,
    { "county":"臺南市","town":"將軍區","name":"美地診所","address":"臺南市將軍區苓仔寮里苓保81號","phone":"06-7946127","Lng":"120.164703","Lat":"23.217893"}
    ,
    { "county":"臺南市","town":"麻豆區","name":"陳信宏小兒科診所","address":"臺南市麻豆區民生路36-8號","phone":"06-5719889","Lng":"120.254042","Lat":"23.181774"}
    ,
    { "county":"臺南市","town":"善化區","name":"臺南市善化區衛生所","address":"臺南市善化區中山路200號","phone":"06-5837035","Lng":"120.299922","Lat":"23.132764"}
    ,
    { "county":"臺南市","town":"善化區","name":"聯和耳鼻喉科診所","address":"臺南市善化區大成路312之1號","phone":"06-5851696","Lng":"120.298002","Lat":"23.129878"}
    ,
    { "county":"臺南市","town":"新化區","name":"徐小兒科診所","address":"臺南市新化區中山路193號","phone":"06-5901995","Lng":"120.310061","Lat":"23.036697"}
    ,
    { "county":"臺南市","town":"新市區","name":"佳安小兒科","address":"臺南市新市區中正路331號","phone":"06-5995234","Lng":"120.294563","Lat":"23.079851"}
    ,
    { "county":"臺南市","town":"新營區","name":"同慶診所","address":"臺南市新營區三民路37之6號","phone":"06-6323566","Lng":"120.319723","Lat":"23.307312"}
    ,
    { "county":"臺南市","town":"新營區","name":"陳耀軫診所","address":"臺南市新營區中正路57號","phone":"06-6356988","Lng":"120.316181","Lat":"23.316759"}
    ,
    { "county":"臺南市","town":"新營區","name":"謝兆唐診所","address":"臺南市新營區民治路60-2號","phone":"06-6377070","Lng":"120.313036","Lat":"23.310735"}
    ,
    { "county":"臺南市","town":"新營區","name":"顏內小兒科診所","address":"臺南市新營區民權路82號","phone":"06-6320209","Lng":"120.312612","Lat":"23.30656"}
    ,
    { "county":"臺南市","town":"歸仁區","name":"茂禾耳鼻喉科診所","address":"臺南市歸仁區中山路一段519號1樓","phone":"06-3303232","Lng":"120.297318","Lat":"22.966263"}
    ,
    { "county":"臺南市","town":"歸仁區","name":"蔡迪光小兒科","address":"臺南市歸仁區民權北路107號","phone":"06-2397839","Lng":"120.288058","Lat":"22.969919"}
    ,
    { "county":"高雄市","town":"三民區","name":"和平醫療社團法人進興診所","address":"高雄市三民區九如一路171號","phone":"07-3869559","Lng":"120.339359","Lat":"22.636811"}
    ,
    { "county":"高雄市","town":"三民區","name":"柳雱邁診所","address":"高雄市三民區大順二路96號","phone":"07-3895640","Lng":"120.327285","Lat":"22.641954"}
    ,
    { "county":"高雄市","town":"三民區","name":"范雅修小兒科診所","address":"高雄市三民區平等路163號","phone":"07-3876366","Lng":"120.320831","Lat":"22.642189"}
    ,
    { "county":"高雄市","town":"三民區","name":"許聰騰診所","address":"高雄市三民區大昌二路100號","phone":"07-3981023","Lng":"120.332316","Lat":"22.642897"}
    ,
    { "county":"高雄市","town":"三民區","name":"鼎真診所","address":"高雄市三民區金鼎路325號","phone":"07-3103130","Lng":"120.32017","Lat":"22.664784"}
    ,
    { "county":"高雄市","town":"三民區","name":"緯立診所","address":"高雄市三民區建元路30號1樓","phone":"07-3850785","Lng":"120.317583","Lat":"22.647044"}
    ,
    { "county":"高雄市","town":"三民區","name":"蕭瑞榮小兒科診所","address":"高雄市三民區建工路533號","phone":"07-3867121","Lng":"120.321659","Lat":"22.648641"}
    ,
    { "county":"高雄市","town":"三民區","name":"儲昭仁耳鼻喉科診所","address":"高雄市三民區九如一路854號","phone":"07-3890470","Lng":"120.318738","Lat":"22.640239"}
    ,
    { "county":"高雄市","town":"大寮區","name":"大承耳鼻喉科診所","address":"高雄市大寮區鳳屏一路466號","phone":"07-7013668","Lng":"120.392702","Lat":"22.636111"}
    ,
    { "county":"高雄市","town":"大寮區","name":"佳和耳鼻喉科診所","address":"高雄市大寮區鳳林三路516號","phone":"07-7821500","Lng":"120.395437","Lat":"22.606255"}
    ,
    { "county":"高雄市","town":"大寮區","name":"宜和內兒科診所","address":"高雄市大寮區鳳林三路341號","phone":"07-7816825","Lng":"120.397711","Lat":"22.601503"}
    ,
    { "county":"高雄市","town":"大寮區","name":"張桐榮診所","address":"高雄市大寮區鳳林三路573號","phone":"07-7825382","Lng":"120.394756","Lat":"22.6083"}
    ,
    { "county":"高雄市","town":"大寮區","name":"郭其靈診所","address":"高雄市大寮區鳳林三路541號","phone":"07-7823335","Lng":"120.395163","Lat":"22.607652"}
    ,
    { "county":"高雄市","town":"小港區","name":"孔鳳診所","address":"高雄市小港區孔鳳路571號","phone":"07-7910311","Lng":"120.358625","Lat":"22.584112"}
    ,
    { "county":"高雄市","town":"小港區","name":"明義診所","address":"高雄市小港區孔鳳路542號","phone":"07-7916959","Lng":"120.358821","Lat":"22.582145"}
    ,
    { "county":"高雄市","town":"小港區","name":"洪清中兒科診所","address":"高雄市小港區二苓路192號1樓","phone":"07-8063773","Lng":"120.349061","Lat":"22.56556"}
    ,
    { "county":"高雄市","town":"仁武區","name":"仁雄診所","address":"高雄市仁武區仁雄路15-1號","phone":"07-3741298","Lng":"120.353236","Lat":"22.680719"}
    ,
    { "county":"高雄市","town":"仁武區","name":"陽光診所","address":"高雄市仁武區中華路255號","phone":"07-3755500","Lng":"120.351551","Lat":"22.700291"}
    ,
    { "county":"高雄市","town":"仁武區","name":"劉內兒科診所","address":"高雄市仁武區仁心路6號","phone":"07-3718727","Lng":"120.355907","Lat":"22.681815"}
    ,
    { "county":"高雄市","town":"左營區","name":"沈嘉充診所","address":"高雄市左營區中華一路5號","phone":"07-5851778","Lng":"120.286816","Lat":"22.669658"}
    ,
    { "county":"高雄市","town":"左營區","name":"長安診所","address":"高雄市左營區左營大路253號1樓","phone":"07-5821864","Lng":"120.290476","Lat":"22.686184"}
    ,
    { "county":"高雄市","town":"左營區","name":"振亮診所","address":"高雄市左營區左營大路156號","phone":"07-5879799","Lng":"120.28922","Lat":"22.683758"}
    ,
    { "county":"高雄市","town":"左營區","name":"富誠診所","address":"高雄市左營區富國路355號1樓","phone":"07-5560925","Lng":"120.307306","Lat":"22.666858"}
    ,
    { "county":"高雄市","town":"左營區","name":"華夏診所","address":"高雄市左營區華夏路708號1樓","phone":"07-3453961","Lng":"120.30224","Lat":"22.677824"}
    ,
    { "county":"高雄市","town":"左營區","name":"黃昭文診所","address":"高雄市左營區自由二路255號","phone":"07-5592289","Lng":"120.308241","Lat":"22.662472"}
    ,
    { "county":"高雄市","town":"左營區","name":"楊宜璋耳鼻喉科診所","address":"高雄市左營區明誠二路362號","phone":"07-5591007","Lng":"120.307227","Lat":"22.661249"}
    ,
    { "county":"高雄市","town":"左營區","name":"福山診所","address":"高雄市左營區重愛路218號","phone":"07-3482323","Lng":"120.315601","Lat":"22.685597"}
    ,
    { "county":"高雄市","town":"岡山區","name":"吳宗慶診所","address":"高雄市岡山區中山北路47號","phone":"07-6229828","Lng":"120.298665","Lat":"22.793821"}
    ,
    { "county":"高雄市","town":"岡山區","name":"黃子育診所","address":"高雄市岡山區前峰路39號","phone":"07-6270101","Lng":"120.288569","Lat":"22.794696"}
    ,
    { "county":"高雄市","town":"岡山區","name":"黃仲達診所","address":"高雄市岡山區柳橋東路9-2號","phone":"07-6297895","Lng":"120.294884","Lat":"22.790766"}
    ,
    { "county":"高雄市","town":"岡山區","name":"黃耳鼻喉科診所","address":"高雄市岡山區岡山路347-1號","phone":"07-6230011","Lng":"120.295132","Lat":"22.797674"}
    ,
    { "county":"高雄市","town":"林園區","name":"建芳診所","address":"高雄市林園區東林東路28號","phone":"07-6467666","Lng":"120.396568","Lat":"22.50376"}
    ,
    { "county":"高雄市","town":"林園區","name":"黃英豪診所","address":"高雄市林園區林園北路188號","phone":"07-6412134","Lng":"120.395045","Lat":"22.50769"}
    ,
    { "county":"高雄市","town":"前金區","name":"大郭診所","address":"高雄市前金區成功一路412號","phone":"07-2412233","Lng":"120.292716","Lat":"22.62732"}
    ,
    { "county":"高雄市","town":"前鎮區","name":"吳泰成耳鼻喉科診所","address":"高雄市前鎮區林森三路150號","phone":"07-3361136;07-3360326","Lng":"120.308862","Lat":"22.613571"}
    ,
    { "county":"高雄市","town":"前鎮區","name":"南隆小兒科診所","address":"高雄市前鎮區復興三路391號","phone":"07-3382967","Lng":"120.311409","Lat":"22.613382"}
    ,
    { "county":"高雄市","town":"前鎮區","name":"美和診所","address":"高雄市前鎮區翠亨北路577號","phone":"07-8123381","Lng":"120.312972","Lat":"22.592286"}
    ,
    { "county":"高雄市","town":"前鎮區","name":"美德聯合診所","address":"高雄市前鎮區草衙二路385號","phone":"07-8156375","Lng":"120.322333","Lat":"22.578354"}
    ,
    { "county":"高雄市","town":"前鎮區","name":"祥全診所","address":"高雄市前鎮區復興三路393號2樓","phone":"07-3340393","Lng":"120.311436","Lat":"22.613467"}
    ,
    { "county":"高雄市","town":"前鎮區","name":"傳家家庭醫學科診所","address":"高雄市前鎮區一德路59號","phone":"07-3344117","Lng":"120.308751","Lat":"22.609642"}
    ,
    { "county":"高雄市","town":"前鎮區","name":"楊榮超診所","address":"高雄市前鎮區一心二路133號","phone":"07-3382616","Lng":"120.308336","Lat":"22.612089"}
    ,
    { "county":"高雄市","town":"前鎮區","name":"聖青診所","address":"高雄市前鎮區草衙一路112號","phone":"07-8310970","Lng":"120.32223","Lat":"22.584226"}
    ,
    { "county":"高雄市","town":"前鎮區","name":"劉志明耳鼻喉科診所","address":"高雄市前鎮區一心一路482號","phone":"07-3363311","Lng":"120.314235","Lat":"22.609912"}
    ,
    { "county":"高雄市","town":"苓雅區","name":"王勇智耳鼻喉科診所","address":"高雄市苓雅區四維二路247號","phone":"07-7253460","Lng":"120.317143","Lat":"22.621556"}
    ,
    { "county":"高雄市","town":"苓雅區","name":"立佳診所","address":"高雄市苓雅區輔仁路149號","phone":"07-7710966","Lng":"120.333015","Lat":"22.63022"}
    ,
    { "county":"高雄市","town":"苓雅區","name":"林文樹小兒科內科診所","address":"高雄市苓雅區武慶三路89號","phone":"07-7611286","Lng":"120.331532","Lat":"22.62148"}
    ,
    { "county":"高雄市","town":"苓雅區","name":"信君耳鼻喉科診所","address":"高雄市苓雅區武廟路196號","phone":"07-7168385","Lng":"120.325537","Lat":"22.631508"}
    ,
    { "county":"高雄市","town":"苓雅區","name":"柯武鎮診所","address":"高雄市苓雅區福壽街193號","phone":"07-7131840","Lng":"120.32637","Lat":"22.626418"}
    ,
    { "county":"高雄市","town":"苓雅區","name":"泰順聯合診所","address":"高雄市苓雅區光華一路148-95號","phone":"07-2241595","Lng":"120.314992","Lat":"22.626225"}
    ,
    { "county":"高雄市","town":"苓雅區","name":"健維診所","address":"高雄市苓雅區福建街25號","phone":"07-3344637","Lng":"120.316578","Lat":"22.618763"}
    ,
    { "county":"高雄市","town":"苓雅區","name":"陳清裕小兒科診所","address":"高雄市苓雅區三多一路327號","phone":"07-7517221","Lng":"120.328586","Lat":"22.621666"}
    ,
    { "county":"高雄市","town":"苓雅區","name":"童春診所","address":"高雄市苓雅區武慶三路98號","phone":"07-7210983","Lng":"120.331852","Lat":"22.62047"}
    ,
    { "county":"高雄市","town":"楠梓區","name":"宏生診所","address":"高雄市楠梓區樂群街179巷2號","phone":"07-3619412","Lng":"120.296716","Lat":"22.718957"}
    ,
    { "county":"高雄市","town":"楠梓區","name":"長義診所","address":"高雄市楠梓區惠民路46號","phone":"07-3640553","Lng":"120.298573","Lat":"22.724916"}
    ,
    { "county":"高雄市","town":"楠梓區","name":"康東原診所","address":"高雄市楠梓區右昌街376號","phone":"07-3610115","Lng":"120.28898","Lat":"22.715042"}
    ,
    { "county":"高雄市","town":"楠梓區","name":"郭士彰耳鼻喉科診所","address":"高雄市楠梓區後昌路862-1號","phone":"07-3683235","Lng":"120.294621","Lat":"22.712391"}
    ,
    { "county":"高雄市","town":"楠梓區","name":"陳顯明診所","address":"高雄市楠梓區德賢路265號","phone":"07-3648127","Lng":"120.303945","Lat":"22.726113"}
    ,
    { "county":"高雄市","town":"鼓山區","name":"朱光興診所","address":"高雄市鼓山區文信路256號1樓","phone":"07-5223188","Lng":"120.299177","Lat":"22.664736"}
    ,
    { "county":"高雄市","town":"鼓山區","name":"為好診所","address":"高雄市鼓山區九如四路957號","phone":"07-5215489","Lng":"120.278766","Lat":"22.655795"}
    ,
    { "county":"高雄市","town":"鼓山區","name":"家安診所","address":"高雄市鼓山區裕誠路1515號","phone":"07-5541515","Lng":"120.295186","Lat":"22.664864"}
    ,
    { "county":"高雄市","town":"鼓山區","name":"瑞芳耳鼻喉科診所","address":"高雄市鼓山區華榮路298號1樓","phone":"07-5527887","Lng":"120.297016","Lat":"22.666278"}
    ,
    { "county":"高雄市","town":"鼓山區","name":"劉水壽診所","address":"高雄市鼓山區鼓山二路166-7號","phone":"07-5211891","Lng":"120.28088","Lat":"22.637174"}
    ,
    { "county":"高雄市","town":"鼓山區","name":"謝加晉診所","address":"高雄市鼓山區民利街1號1樓","phone":"07-5532526","Lng":"120.294996","Lat":"22.66132"}
    ,
    { "county":"高雄市","town":"鳳山區","name":"大欣診所","address":"高雄市鳳山區文化路25號","phone":"07-7993009","Lng":"120.357799","Lat":"22.633281"}
    ,
    { "county":"高雄市","town":"鳳山區","name":"文衡診所","address":"高雄市鳳山區文衡路344號","phone":"07-7768185","Lng":"120.355006","Lat":"22.640205"}
    ,
    { "county":"高雄市","town":"鳳山區","name":"台安診所","address":"高雄市鳳山區雙慈街26號","phone":"07-7410268","Lng":"120.35708","Lat":"22.625003"}
    ,
    { "county":"高雄市","town":"鳳山區","name":"林誓揚診所","address":"高雄市鳳山區經武路18號","phone":"07-7482228","Lng":"120.362213","Lat":"22.62618"}
    ,
    { "county":"高雄市","town":"鳳山區","name":"祐幼小兒科診所","address":"高雄市鳳山區八德路296巷28號","phone":"07-7769977","Lng":"120.355496","Lat":"22.639757"}
    ,
    { "county":"高雄市","town":"鳳山區","name":"高丹榕診所","address":"高雄市鳳山區光復路二段223號","phone":"07-7475556","Lng":"120.344787","Lat":"22.629275"}
    ,
    { "county":"高雄市","town":"鳳山區","name":"陳柏蒼耳鼻喉科診所","address":"高雄市鳳山區文衡路480號","phone":"07-7775388","Lng":"120.35029","Lat":"22.641076"}
    ,
    { "county":"高雄市","town":"鳳山區","name":"陳重志聯合診所","address":"高雄市鳳山區光復路一段139號","phone":"07-7427329","Lng":"120.350668","Lat":"22.629114"}
    ,
    { "county":"高雄市","town":"鳳山區","name":"新華田內科診所","address":"高雄市鳳山區曹公路16之4號","phone":"07-7999128","Lng":"120.357277","Lat":"22.628928"}
    ,
    { "county":"高雄市","town":"鳳山區","name":"聖壹診所","address":"高雄市鳳山區瑞興路482號1樓","phone":"07-7014755","Lng":"120.371765","Lat":"22.630898"}
    ,
    { "county":"屏東縣","town":"內埔鄉","name":"蕭文熙診所","address":"屏東縣內埔鄉廣濟路149號","phone":"08-7692999","Lng":"120.56656","Lat":"22.612546"}
    ,
    { "county":"屏東縣","town":"里港鄉","name":"普生診所","address":"屏東縣里港鄉大平村中山路35號","phone":"08-7751188","Lng":"120.494343","Lat":"22.776564"}
    ,
    { "county":"屏東縣","town":"東港鎮","name":"宋耳鼻喉科診所","address":"屏東縣東港鎮光復路二段88號","phone":"08-8353681","Lng":"120.452766","Lat":"22.466439"}
    ,
    { "county":"屏東縣","town":"長治鄉","name":"和合診所","address":"屏東縣長治鄉長興路132號","phone":"08-7381258","Lng":"120.524502","Lat":"22.67808"}
    ,
    { "county":"屏東縣","town":"屏東市","name":"林長興診所","address":"屏東縣屏東市廣東路72號","phone":"08-7236266","Lng":"120.499206","Lat":"22.67142"}
    ,
    { "county":"屏東縣","town":"屏東市","name":"張俊智診所","address":"屏東縣屏東市博愛路215號","phone":"08-7667010","Lng":"120.481001","Lat":"22.678294"}
    ,
    { "county":"屏東縣","town":"屏東市","name":"梁宏志診所","address":"屏東縣屏東市自由路379-4號","phone":"08-7364494","Lng":"120.495431","Lat":"22.680544"}
    ,
    { "county":"屏東縣","town":"屏東市","name":"蔡長禧診所","address":"屏東縣屏東市民生路12-16號","phone":"08-7227766","Lng":"120.501413","Lat":"22.665668"}
    ,
    { "county":"屏東縣","town":"恆春鎮","name":"洪梓策親子診所","address":"屏東縣恆春鎮環城北路181號","phone":"08-8880197","Lng":"120.746345","Lat":"22.009169"}
    ,
    { "county":"屏東縣","town":"高樹鄉","name":"嘉誠診所","address":"屏東縣高樹鄉高樹村南興路118-1號","phone":"08-7962772","Lng":"120.601718","Lat":"22.823485"}
    ,
    { "county":"屏東縣","town":"新園鄉","name":"趙致成診所","address":"屏東縣新園鄉仙吉路211號","phone":"08-8681236","Lng":"120.462947","Lat":"22.546935"}
    ,
    { "county":"屏東縣","town":"萬丹鄉","name":"張家瑜診所","address":"屏東縣萬丹鄉社皮路3段228號","phone":"08-7070342","Lng":"120.470596","Lat":"22.618362"}
    ,
    { "county":"屏東縣","town":"萬丹鄉","name":"陳琪銘診所","address":"屏東縣萬丹鄉萬壽路二段275號","phone":"08-7770488","Lng":"120.487641","Lat":"22.586948"}
    ,
    { "county":"屏東縣","town":"潮州鎮","name":"黃志忠診所","address":"屏東縣潮州鎮中山路33號","phone":"08-7884486","Lng":"120.543111","Lat":"22.549496"}
    ,
    { "county":"屏東縣","town":"潮州鎮","name":"瑞安診所","address":"屏東縣潮州鎮興隆路137號","phone":"08-7888716","Lng":"120.540045","Lat":"22.543277"}
    ,
    { "county":"屏東縣","town":"鹽埔鄉","name":"永興診所","address":"屏東縣鹽埔鄉振興村中正路54號","phone":"08-7021343","Lng":"120.609188","Lat":"22.722726"}
    ,
    { "county":"屏東縣","town":"鹽埔鄉","name":"和生診所","address":"屏東縣鹽埔鄉維新路72-2號","phone":"08-7938202","Lng":"120.556734","Lat":"22.739795"}
    ,
    { "county":"屏東縣","town":"鹽埔鄉","name":"長生診所","address":"屏東縣鹽埔鄉鹽中村勝利路45之9號","phone":"08-7935915","Lng":"120.574123","Lat":"22.755807"}
    ,
    { "county":"澎湖縣","town":"馬公市","name":"江明儒耳鼻喉科診所","address":"澎湖縣馬公市大勇街65號","phone":"06-9276768","Lng":"119.571461","Lat":"23.572147"}
    ,
    { "county":"澎湖縣","town":"馬公市","name":"周明河小兒科診所","address":"澎湖縣馬公市陽明路33號","phone":"06-9264080","Lng":"119.574724","Lat":"23.572724"}
    ,
    { "county":"花蓮縣","town":"玉里鎮","name":"里安診所","address":"花蓮縣玉里鎮復興街28號","phone":"03-8883232","Lng":"121.313059","Lat":"23.332293"}
    ,
    { "county":"花蓮縣","town":"玉里鎮","name":"啟光診所","address":"花蓮縣玉里鎮中華路74號","phone":"03-8880468","Lng":"121.316434","Lat":"23.334233"}
    ,
    { "county":"花蓮縣","town":"光復鄉","name":"花蓮縣光復鄉衛生所","address":"花蓮縣光復鄉大馬村中學街158號","phone":"03-8701114","Lng":"121.42594","Lat":"23.671897"}
    ,
    { "county":"花蓮縣","town":"吉安鄉","name":"福田耳鼻喉科診所","address":"花蓮縣吉安鄉建國路一段65號","phone":"03-8577823","Lng":"121.594434","Lat":"23.985019"}
    ,
    { "county":"花蓮縣","town":"秀林鄉","name":"秀林鄉衛生所","address":"花蓮縣秀林鄉秀林村12鄰秀林路88號","phone":"03-8612122","Lng":"121.63337","Lat":"24.126902"}
    ,
    { "county":"花蓮縣","town":"花蓮市","name":"佳佳診所","address":"花蓮縣花蓮市中山路142之7號","phone":"03-8337437","Lng":"121.609855","Lat":"23.976572"}
    ,
    { "county":"花蓮縣","town":"花蓮市","name":"郭乃瑜耳鼻喉科診所","address":"花蓮縣花蓮市中山路654-1號","phone":"03-8563601","Lng":"121.596514","Lat":"23.993845"}
    ,
    { "county":"花蓮縣","town":"新城鄉","name":"路加家庭醫師診所","address":"花蓮縣新城鄉北埔村自信街13號","phone":"03-8265082","Lng":"121.603374","Lat":"24.028331"}
    ,
    { "county":"臺東縣","town":"東河鄉","name":"都蘭診所","address":"臺東縣東河鄉都蘭村21鄰都蘭96號","phone":"08-9530021","Lng":"121.227571","Lat":"22.872983"}
    ,
    { "county":"臺東縣","town":"金峰鄉","name":"臺東縣金峰鄉衛生所","address":"臺東縣金峰鄉賓茂村14號","phone":"089-772201","Lng":"120.960646","Lat":"22.53248"}
    ,
    { "county":"臺東縣","town":"鹿野鄉","name":"臺東縣鹿野鄉衛生所","address":"臺東縣鹿野鄉中華路一段418號","phone":"089-551074","Lng":"121.136553","Lat":"22.910257"}
    ,
    { "county":"臺東縣","town":"綠島鄉","name":"臺東縣綠島鄉衛生所","address":"臺東縣綠島鄉中寮村1-1號","phone":"08-9672511","Lng":"121.469257","Lat":"22.672905"}
    ,
    { "county":"臺東縣","town":"臺東市","name":"大慶家醫科外科診所","address":"臺東縣臺東市中山路267號","phone":"08-9322221","Lng":"121.151902","Lat":"22.756105"}
    ,
    { "county":"臺東縣","town":"臺東市","name":"尤憲明內科小兒科診所","address":"臺東縣臺東市中華路一段396號","phone":"089-323306","Lng":"121.152801","Lat":"22.754093"}
    ,
    { "county":"臺北市","town":"松山區","name":"親親家庭診所","address":"臺北市松山區南京東路5段347號1樓","phone":"02-25283232","Lng":"121.567756","Lat":"25.051546"}
    ,
    { "county":"臺北市","town":"萬華區","name":"盧漢隆耳鼻喉科診所","address":"臺北市萬華區環河南路二段197號","phone":"02-23361363","Lng":"121.491752","Lat":"25.032268"}
    ,
    { "county":"新北市","town":"永和區","name":"誠新耳鼻喉科診所","address":"新北市永和區永和路二段173號","phone":"02-22318000","Lng":"121.515224","Lat":"25.013207"}
    ,
    { "county":"新北市","town":"永和區","name":"德上診所","address":"新北市永和區中正路106號","phone":"02-29403938","Lng":"121.514465","Lat":"24.995903"}
    ,
    { "county":"桃園市","town":"八德區","name":"介壽診所","address":"桃園市八德區介壽路一段865號","phone":"03-3677787","Lng":"121.299884","Lat":"24.961058"}
    ,
    { "county":"桃園市","town":"大溪區","name":"誠德耳鼻喉科診所","address":"桃園市大溪區康莊路192號","phone":"03-3883132","Lng":"121.288431","Lat":"24.879822"}
    ,
    { "county":"桃園市","town":"中壢區","name":"佳國耳鼻喉科診所","address":"桃園市中壢區中北路47號1樓","phone":"03-4664735","Lng":"121.236829","Lat":"24.956136"}
    ,
    { "county":"桃園市","town":"中壢區","name":"長安內科診所","address":"桃園市中壢區中山東路二段536號1樓","phone":"03-4655665","Lng":"121.245499","Lat":"24.946721"}
    ,
    { "county":"桃園市","town":"中壢區","name":"馬興華耳鼻喉科診所","address":"桃園市中壢區中北路二段80號","phone":"03-4591680","Lng":"121.225102","Lat":"24.950658"}
    ,
    { "county":"桃園市","town":"中壢區","name":"寰東耳鼻喉科診所","address":"桃園市中壢區環中東路187號1樓","phone":"03-4559069","Lng":"121.258173","Lat":"24.96416"}
    ,
    { "county":"桃園市","town":"平鎮區","name":"文化診所","address":"桃園市平鎮區文化街92號1-2樓","phone":"03-4951689","Lng":"121.202975","Lat":"24.953911"}
    ,
    { "county":"桃園市","town":"桃園區","name":"大順診所","address":"桃園市桃園區南平路302之3號","phone":"03-3167585","Lng":"121.298764","Lat":"25.018514"}
    ,
    { "county":"桃園市","town":"桃園區","name":"日出親子診所","address":"桃園市桃園區中山路824號1樓、826號1樓","phone":"03-3787876","Lng":"121.290395","Lat":"24.990915"}
    ,
    { "county":"桃園市","town":"桃園區","name":"何翊菁診所","address":"桃園市桃園區中埔六街123號","phone":"03-3551192","Lng":"121.295194","Lat":"25.01789"}
    ,
    { "county":"桃園市","town":"桃園區","name":"邵柏源耳鼻喉科診所","address":"桃園市桃園區中正路1141號1樓","phone":"03-3166611","Lng":"121.297349","Lat":"25.018096"}
    ,
    { "county":"桃園市","town":"桃園區","name":"偉勝耳鼻喉科診所","address":"桃園市桃園區中正路558號","phone":"03-3473858","Lng":"121.30559","Lat":"25.00353"}
    ,
    { "county":"桃園市","town":"桃園區","name":"寶順診所","address":"桃園市桃園區寶山街239號","phone":"03-3560127","Lng":"121.314787","Lat":"25.011586"}
    ,
    { "county":"桃園市","town":"楊梅區","name":"桃園市楊梅區衛生所","address":"桃園市楊梅區校前路409號","phone":"03-4750151","Lng":"121.149676","Lat":"24.896985"}
    ,
    { "county":"桃園市","town":"龍潭區","name":"桃園市龍潭區衛生所","address":"桃園市龍潭區中正路210號","phone":"03-4792033","Lng":"121.21653","Lat":"24.864041"}
    ,
    { "county":"桃園市","town":"龍潭區","name":"龍欣耳鼻喉科診所","address":"桃園市龍潭區中正路254號","phone":"03-4808306","Lng":"121.217266","Lat":"24.862658"}
    ,
    { "county":"桃園市","town":"龜山區","name":"永樂耳鼻喉科診所","address":"桃園市龜山區萬壽路1段107號1樓、109號1樓","phone":"02-82000580","Lng":"121.409094","Lat":"25.018923"}
    ,
    { "county":"桃園市","town":"龜山區","name":"南崁現代診所","address":"桃園市龜山區南祥路40號","phone":"03-3218080","Lng":"121.297427","Lat":"25.046271"}
    ,
    { "county":"桃園市","town":"觀音區","name":"全心診所","address":"桃園市觀音區大觀路二段182號1樓","phone":"03-4834783","Lng":"121.140655","Lat":"25.045763"}
    ,
    { "county":"桃園市","town":"觀音區","name":"桃園市觀音區衛生所","address":"桃園市觀音區觀新路58號","phone":"03-4732031","Lng":"121.083751","Lat":"25.027823"}
    ,
    { "county":"新竹市","town":"東區","name":"新竹科學工業園區員工診所","address":"新竹市東區科園里工業東二路2號","phone":"03-6669996","Lng":"121.0026186","Lat":"24.7805151"}
    ,
    { "county":"新竹縣","town":"尖石鄉","name":"新竹縣尖石鄉衛生所","address":"新竹縣尖石鄉嘉樂村2鄰61號","phone":"03-5841011","Lng":"121.202274","Lat":"24.70562"}
    ,
    { "county":"新竹縣","town":"竹北市","name":"傅仁良小兒科診所","address":"新竹縣竹北市博愛街172號","phone":"03-5530106","Lng":"121.00573","Lat":"24.83239"}
    ,
    { "county":"新竹縣","town":"寶山鄉","name":"新竹縣寶山鄉衛生所","address":"新竹縣寶山鄉雙園路二段273號","phone":"03-5203054","Lng":"120.994859","Lat":"24.766908"}
    ,
    { "county":"苗栗縣","town":"獅潭鄉","name":"苗栗縣獅潭鄉衛生所","address":"苗栗縣獅潭鄉新店村11鄰新店130之6號","phone":"037-931309","Lng":"120.920087","Lat":"24.539493"}
    ,
    { "county":"彰化縣","town":"彰化市","name":"信成耳鼻喉科診所","address":"彰化縣彰化市三民路304號","phone":"04-7235900","Lng":"120.544752","Lat":"24.085705"}
    ,
    { "county":"新北市","town":"板橋區","name":"新北市板橋區衛生所","address":"新北市板橋區英士路192號","phone":"02-22586606","Lng":"121.458327","Lat":"25.023316"}
    ,
    { "county":"新北市","town":"新店區","name":"新北市新店區衛生所","address":"新北市新店區北新路一段 86 號 12樓","phone":"02-29113984","Lng":"121.541669","Lat":"24.967645"}
    ,
    { "county":"新北市","town":"蘆洲區","name":"新北市蘆洲區衛生所","address":"新北市蘆洲區中央路58號","phone":"02-22812011","Lng":"121.473284","Lat":"25.083963"}
    ,
    { "county":"新北市","town":"瑞芳區","name":"新北市瑞芳區衛生所","address":"新北市瑞芳區明燈路3段1號","phone":"02-24972132","Lng":"121.809044","Lat":"25.107371"}
    ,
    { "county":"新北市","town":"五股區","name":"新北市五股區衛生所","address":"新北市五股區新城三路11號","phone":"02-22917717","Lng":"121.436811","Lat":"25.083507"}
    ,
    { "county":"新北市","town":"深坑區","name":"新北市深坑區衛生所","address":"新北市深坑區深坑街165號1-3樓","phone":"02-26621567","Lng":"121.612643","Lat":"25.000938"}
    ,
    { "county":"新北市","town":"八里區","name":"新北市八里區衛生所","address":"新北市八里區舊城路16號","phone":"02-26102137","Lng":"121.40006","Lat":"25.147095"}
    ,
    { "county":"新北市","town":"平溪區","name":"新北市平溪區衛生所","address":"新北市平溪區石底里公園街17號","phone":"02-24951015","Lng":"121.737185","Lat":"25.024681"}
    ,
    { "county":"新北市","town":"三芝區","name":"新北市三芝區衛生所","address":"新北市三芝區中山路1段12號","phone":"02-26362007","Lng":"121.500753","Lat":"25.258407"}
    ,
    { "county":"基隆市","town":"中正區","name":"安瀾診所","address":"基隆市中正區中正路197號","phone":"02-24623389","Lng":"121.760744","Lat":"25.142776"}
    ,
    { "county":"臺東縣","town":"臺東市","name":"臺東縣臺東市衛生所","address":"臺東縣臺東市大同路51號","phone":"089-350806","Lng":"121.156238","Lat":"22.750382"}
    ,
    { "county":"臺東縣","town":"蘭嶼鄉","name":"臺東縣蘭嶼鄉衛生所","address":"臺東縣蘭嶼鄉紅頭村36-1號","phone":"089-732002","Lng":"121.55465","Lat":"22.024916"}
    ,
    { "county":"臺東縣","town":"延平鄉","name":"臺東縣延平鄉衛生所","address":"臺東縣延平鄉桃源1鄰11號","phone":"089-561040","Lng":"121.08564","Lat":"22.902107"}
    ,
    { "county":"臺東縣","town":"卑南鄉","name":"臺東縣卑南鄉衛生所","address":"臺東縣卑南鄉太平村和平路132號","phone":"089-382042","Lng":"121.088069","Lat":"22.78207"}
    ,
    { "county":"臺東縣","town":"關山鎮","name":"臺東縣關山鎮衛生所","address":"臺東縣關山鎮中華路78號","phone":"089-810460","Lng":"121.163854","Lat":"23.049569"}
    ,
    { "county":"臺東縣","town":"海端鄉","name":"臺東縣海端鄉衛生所","address":"臺東縣海端鄉海端村山界29號","phone":"089-931391","Lng":"121.176693","Lat":"23.100942"}
    ,
    { "county":"臺東縣","town":"池上鄉","name":"臺東縣池上鄉衛生所","address":"臺東縣池上鄉中山路104號","phone":"089-862609","Lng":"121.214811","Lat":"23.121687"}
    ,
    { "county":"臺東縣","town":"東河鄉","name":"臺東縣東河鄉衛生所","address":"臺東縣東河鄉東河村10鄰300號","phone":"089-896289","Lng":"121.303079","Lat":"22.968461"}
    ,
    { "county":"臺東縣","town":"成功鎮","name":"臺東縣成功鎮衛生所","address":"臺東縣成功鎮中山東路64號","phone":"089-851419","Lng":"121.379504","Lat":"23.099927"}
    ,
    { "county":"臺東縣","town":"長濱鄉","name":"臺東縣長濱鄉衛生所","address":"臺東縣長濱鄉長濱村7鄰中興路46號","phone":"089-831022","Lng":"121.453925","Lat":"23.31878"}
    ,
    { "county":"臺東縣","town":"太麻里鄉","name":"臺東縣太麻里鄉衛生所","address":"臺東縣太麻里鄉泰和村2鄰民權路66號","phone":"089-781220","Lng":"121.007423","Lat":"22.615376"}
    ,
    { "county":"臺東縣","town":"大武鄉","name":"臺東縣大武鄉衛生所","address":"臺東縣大武鄉大武村復興路2-2號","phone":"089-791325","Lng":"120.907819","Lat":"22.364141"}
    ,
    { "county":"臺東縣","town":"達仁鄉","name":"臺東縣達仁鄉衛生所","address":"臺東縣達仁鄉安朔村復興路122號","phone":"089-702209","Lng":"120.885002","Lat":"22.29323"}
    ,
    { "county":"新北市","town":"永和區","name":"新北市永和區衛生所","address":"新北市永和區秀朗路1段137號","phone":"02-32332780","Lng":"121.516232","Lat":"25.004971"}
    ,
    { "county":"新北市","town":"土城區","name":"新北市土城區衛生所","address":"新北市土城區和平路26號","phone":"02-22603181","Lng":"121.443189","Lat":"24.972857"}
    ,
    { "county":"新北市","town":"鶯歌區","name":"新北市鶯歌區衛生所","address":"新北市鶯歌區文化路389號","phone":"02-26702304","Lng":"121.352529","Lat":"24.95047"}
    ,
    { "county":"新北市","town":"淡水區","name":"新北市淡水區衛生所","address":"新北市淡水區中山路158號","phone":"02-26215620","Lng":"121.440844","Lat":"25.172778"}
    ,
    { "county":"新北市","town":"泰山區","name":"新北市泰山區衛生所","address":"新北市泰山區全興路212號3樓","phone":"02-29099921","Lng":"121.433653","Lat":"25.056131"}
    ,
    { "county":"新北市","town":"林口區","name":"新北市林口區衛生所","address":"新北市林口區林口路70號","phone":"02-26068760","Lng":"121.390206","Lat":"25.079383"}
    ,
    { "county":"新北市","town":"石門區","name":"新北市石門區衛生所","address":"新北市石門區石門里中山路28之1號","phone":"02-26381007","Lng":"121.565622","Lat":"25.289978"}
    ,
    { "county":"新北市","town":"樹林區","name":"新北市樹林區衛生所","address":"新北市樹林區樹新路40-7號","phone":"02-26812134","Lng":"121.414835","Lat":"24.983889"}
    ,
    { "county":"新北市","town":"三重區","name":"艾樂堡診所","address":"新北市三重區集賢路63之1號","phone":"02-82875777","Lng":"121.494832","Lat":"25.086417"}
    ,
    { "county":"新北市","town":"三重區","name":"高柏森耳鼻喉科診所","address":"新北市三重區正義北路191號","phone":"02-29839808","Lng":"121.496318","Lat":"25.068069"}
    ,
    { "county":"新北市","town":"萬里區","name":"享悅診所","address":"新北市萬里區瑪鋉路34號","phone":"02-24928190","Lng":"121.689323","Lat":"25.177399"}
    ,
    { "county":"新北市","town":"蘆洲區","name":"人安診所","address":"新北市蘆洲區民權路133號1樓","phone":"02-22881661","Lng":"121.471808","Lat":"25.090222"}
    ,
    { "county":"基隆市","town":"中正區","name":"八斗子診所","address":"基隆市中正區北寧路378之1號2樓","phone":"02-24698789","Lng":"121.795815","Lat":"25.139437"}
    ,
    { "county":"基隆市","town":"七堵區","name":"泰安內科診所","address":"基隆市七堵區明德一路93號","phone":"02-24552305","Lng":"121.715813","Lat":"25.098154"}
    ,
    { "county":"基隆市","town":"仁愛區","name":"王孟俊診所","address":"基隆市仁愛區南榮路143號","phone":"02-24293128","Lng":"121.742976","Lat":"25.124624"}
    ,
    { "county":"新北市","town":"新莊區","name":"新北市新莊區衛生所","address":"新北市新莊區中華路一段2號","phone":"02-29967123","Lng":"121.452248","Lat":"25.036408"}
    ,
    { "county":"新北市","town":"三重區","name":"謝明宏小兒科","address":"新北市三重區中華路43號","phone":"02-29816425","Lng":"121.483575","Lat":"25.061775"}
    ,
    { "county":"新北市","town":"三重區","name":"惟新診所","address":"新北市三重區五華街145號1樓","phone":"02-28572559","Lng":"121.490831","Lat":"25.084696"}
    ,
    { "county":"新北市","town":"三重區","name":"大有診所","address":"新北市三重區中正北路374號1樓","phone":"02-29834567","Lng":"121.476844","Lat":"25.069638"}
    ,
    { "county":"新北市","town":"三重區","name":"保順聯合診所","address":"新北市三重區正義北路5號","phone":"02-29855630","Lng":"121.497894","Lat":"25.062591"}
    ,
    { "county":"新北市","town":"三重區","name":"德心診所","address":"新北市三重區力行路二段206號","phone":"02-82878007","Lng":"121.483481","Lat":"25.077725"}
    ,
    { "county":"新北市","town":"三重區","name":"德河聯合診所","address":"新北市三重區重陽路三段117號","phone":"02-89851515","Lng":"121.490817","Lat":"25.068605"}
    ,
    { "county":"新北市","town":"中和區","name":"淯陞診所","address":"新北市中和區安樂路19號1至2樓","phone":"02-29400355","Lng":"121.511629","Lat":"24.992207"}
    ,
    { "county":"新北市","town":"中和區","name":"戴廣懷小兒科診所","address":"新北市中和區安樂路66號","phone":"02-29414451","Lng":"121.51227","Lat":"24.99323"}
    ,
    { "county":"新北市","town":"中和區","name":"益德診所","address":"新北市中和區忠孝街75號1樓","phone":"02-86688421","Lng":"121.511962","Lat":"24.985092"}
    ,
    { "county":"新北市","town":"中和區","name":"曾咸統小兒科診所","address":"新北市中和區景安路229號1樓","phone":"02-31516343","Lng":"121.504282","Lat":"24.991174"}
    ,
    { "county":"新北市","town":"中和區","name":"陳建良耳鼻喉科診所","address":"新北市中和區景新街465號1、2樓","phone":"02-89413009","Lng":"121.513388","Lat":"24.988244"}
    ,
    { "county":"新北市","town":"中和區","name":"優寶婦產科診所","address":"新北市中和區華新街22號","phone":"02-86689519","Lng":"121.507527","Lat":"24.984893"}
    ,
    { "county":"新北市","town":"中和區","name":"廣祥診所","address":"新北市中和區興南路2段27號1樓後半部及29號１、２樓","phone":"02-86683090","Lng":"121.507867","Lat":"24.985821"}
    ,
    { "county":"新北市","town":"中和區","name":"佑欣診所","address":"新北市中和區興南路一段90號１樓","phone":"02-86685811","Lng":"121.509904","Lat":"24.989204"}
    ,
    { "county":"基隆市","town":"中正區","name":"林承興診所","address":"基隆市中正區北寧路319號","phone":"02-24697639","Lng":"121.795339","Lat":"25.139752"}
    ,
    { "county":"基隆市","town":"仁愛區","name":"仁愛診所","address":"基隆市仁愛區孝三路80號","phone":"02-24223255","Lng":"121.739842","Lat":"25.130723"}
    ,
    { "county":"基隆市","town":"中正區","name":"合成診所","address":"基隆市中正區祥豐街205號","phone":"02-24632532","Lng":"121.765696","Lat":"25.143495"}
    ,
    { "county":"臺東縣","town":"臺東市","name":"李文正內科診所","address":"臺東縣臺東市中正路295號","phone":"089-323920","Lng":"121.152259","Lat":"22.756539"}
    ,
    { "county":"臺東縣","town":"太麻里鄉","name":"杏歆診所","address":"臺東縣太麻里鄉太麻里街253號","phone":"089-783018","Lng":"121.005505","Lat":"22.610468"}
    ,
    { "county":"臺東縣","town":"臺東市","name":"賴鵬雲診所","address":"臺東縣臺東市正氣路153號","phone":"089-310070","Lng":"121.152428","Lat":"22.751783"}
    ,
    { "county":"臺東縣","town":"臺東市","name":"和意診所","address":"臺東縣臺東市四維路三段30號","phone":"089-220727","Lng":"121.144521","Lat":"22.76601"}
    ,
    { "county":"臺東縣","town":"臺東市","name":"育生小兒科診所","address":"臺東縣臺東市中山路244號","phone":"089-345304","Lng":"121.151565","Lat":"22.75643"}
    ,
    { "county":"臺東縣","town":"臺東市","name":"小太陽小兒科診所","address":"臺東縣臺東市光明路124號","phone":"089-349106","Lng":"121.152064","Lat":"22.7556"}
    ,
    { "county":"新北市","town":"三峽區","name":"新禾診所","address":"新北市三峽區學成路235號1樓","phone":"02-86716686","Lng":"121.375033","Lat":"24.942616"}
    ,
    { "county":"基隆市","town":"仁愛區","name":"楊耳鼻喉科診所","address":"基隆市仁愛區仁二路115號","phone":"02-24245212","Lng":"121.748048","Lat":"25.127382"}
    ,
    { "county":"基隆市","town":"仁愛區","name":"李任堅小兒科診所","address":"基隆市仁愛區孝一路86號","phone":"02-24269096","Lng":"121.740956","Lat":"25.129251"}
    ,
    { "county":"新北市","town":"中和區","name":"新北市中和區衛生所","address":"新北市中和區南山路4巷3號","phone":"02-22491936","Lng":"121.501638","Lat":"24.998691"}
    ,
    { "county":"新北市","town":"三峽區","name":"新北市三峽區衛生所","address":"新北市三峽區光明路71號3樓","phone":"02-26711592","Lng":"121.376129","Lat":"24.928297"}
    ,
    { "county":"臺中市","town":"大里區","name":"安聲耳鼻喉科診所","address":"臺中市大里區大里路98-5號","phone":"04-24852301","Lng":"120.686617","Lat":"24.104631"}
    ,
    { "county":"臺中市","town":"梧棲區","name":"安心診所","address":"臺中市梧棲區港埠路一段1115號","phone":"04-26562059","Lng":"120.534901","Lat":"24.249396"}
    ,
    { "county":"臺中市","town":"龍井區","name":"康德耳鼻喉科診所","address":"臺中市龍井區新興路43號","phone":"04-26317903","Lng":"120.587641","Lat":"24.181017"}
    ,
    { "county":"臺中市","town":"霧峰區","name":"陳炎山家庭醫學科診所","address":"臺中市霧峰區中正路1110號","phone":"04-23391100","Lng":"120.699121","Lat":"24.069355"}
    ,
    { "county":"彰化縣","town":"芳苑鄉","name":"振源診所","address":"彰化縣芳苑鄉民生村建成路44號","phone":"04-8933786","Lng":"120.340159","Lat":"23.963563"}
    ,
    { "county":"南投縣","town":"南投市","name":"詹建盛診所","address":"南投縣南投市南陽路475號","phone":"04-92243055","Lng":"120.681077","Lat":"23.911529"}
    ,
    { "county":"臺中市","town":"西屯區","name":"蘇家龍診所","address":"臺中市西屯區黎明路三段421號","phone":"04-27085151","Lng":"120.639219","Lat":"24.183395"}
    ,
    { "county":"新北市","town":"三重區","name":"德慈聯合診所","address":"新北市三重區重新路三段14號","phone":"02-29736693","Lng":"121.495125","Lat":"25.061377"}
    ,
    { "county":"新北市","town":"三重區","name":"江村聯合診所","address":"新北市三重區重新路三段7號","phone":"02-29821515","Lng":"121.495275","Lat":"25.061648"}
    ,
    { "county":"新北市","town":"三重區","name":"林永權耳鼻喉科診所","address":"新北市三重區三陽路32號","phone":"02-29714526","Lng":"121.48535","Lat":"25.058675"}
    ,
    { "county":"彰化縣","town":"線西鄉","name":"彰化縣線西鄉衛生所","address":"彰化縣線西鄉寓埔村中央路2段25號1樓","phone":"04-7585201","Lng":"120.470429","Lat":"24.130385"}
    ,
    { "county":"新北市","town":"中和區","name":"馮泰龍小兒科診所","address":"新北市中和區南華路21號","phone":"02-82421606","Lng":"121.502745","Lat":"24.995857"}
    ,
    { "county":"新北市","town":"板橋區","name":"吳建明小兒科診所","address":"新北市板橋區四川路二段245巷46號","phone":"02-89670670","Lng":"121.451785","Lat":"24.992514"}
    ,
    { "county":"新北市","town":"中和區","name":"翰霖耳鼻喉科診所","address":"新北市中和區景安路202號","phone":"02-22462238","Lng":"121.504029","Lat":"24.991225"}
    ,
    { "county":"新北市","town":"中和區","name":"捷安診所","address":"新北市中和區中和路456號","phone":"02-22331117","Lng":"121.512179","Lat":"25.00373"}
    ,
    { "county":"新北市","town":"新莊區","name":"晉安診所","address":"新北市新莊區中正路700之24號","phone":"02-29061510","Lng":"121.417777","Lat":"25.026897"}
    ,
    { "county":"新北市","town":"永和區","name":"旭恩小兒科診所","address":"新北市永和區中山路一段172號","phone":"02-29220217","Lng":"121.509243","Lat":"25.009146"}
    ,
    { "county":"新北市","town":"鶯歌區","name":"金鶯診所","address":"新北市鶯歌區國慶街167號","phone":"02-26702559","Lng":"121.35123","Lat":"24.953075"}
    ,
    { "county":"新北市","town":"三重區","name":"華貞診所","address":"新北市三重區三和路三段80號","phone":"02-29716626","Lng":"121.494617","Lat":"25.071697"}
    ,
    { "county":"新北市","town":"三重區","name":"重新診所","address":"新北市三重區重新路二段150號","phone":"02-29765868","Lng":"121.495617","Lat":"25.061495"}
    ,
    { "county":"新北市","town":"三重區","name":"健福診所","address":"新北市三重區溪尾街171號","phone":"02-89851660","Lng":"121.488916","Lat":"25.080276"}
    ,
    { "county":"新北市","town":"三重區","name":"龍華診所","address":"新北市三重區五華街100號","phone":"02-29883500","Lng":"121.492635","Lat":"25.082488"}
    ,
    { "county":"新北市","town":"新莊區","name":"鉅儒診所","address":"新北市新莊區西盛街180號1樓","phone":"02 2205 7193","Lng":"121.428079","Lat":"25.018767"}
    ,
    { "county":"新北市","town":"樹林區","name":"三樹金鶯診所","address":"新北市樹林區學成路600號","phone":"02-26807101","Lng":"121.381815","Lat":"24.945838"}
    ,
    { "county":"臺北市","town":"北投區","name":"文遠診所","address":"臺北市北投區石牌路二段346號1、2樓","phone":"02-28739991","Lng":"121.524888","Lat":"25.122927"}
    ,
    { "county":"新北市","town":"三重區","name":"益安診所","address":"新北市三重區正義北路152號","phone":"02-89828775","Lng":"121.496547","Lat":"25.06624"}
    ,
    { "county":"新北市","town":"三重區","name":"正興診所","address":"新北市三重區正義北路113號","phone":"02-29861235","Lng":"121.496981","Lat":"25.065788"}
    ,
    { "county":"新北市","town":"板橋區","name":"聯德診所","address":"新北市板橋區溪北路13號","phone":"02-86871766","Lng":"121.426838","Lat":"24.990478"}
    ,
    { "county":"新北市","town":"板橋區","name":"樂福診所","address":"新北市板橋區三民路二段89號","phone":"02-29560606","Lng":"121.479411","Lat":"25.0165"}
    ,
    { "county":"新北市","town":"新莊區","name":"寶祥診所","address":"新北市新莊區中平路53號","phone":"02-29960303","Lng":"121.444685","Lat":"25.044412"}
    ,
    { "county":"新北市","town":"三重區","name":"集美診所","address":"新北市三重區集美街174-1號","phone":"02-29775177","Lng":"121.490427","Lat":"25.05325"}
    ,
    { "county":"新北市","town":"三重區","name":"九如聯合診所","address":"新北市三重區仁愛街753號","phone":"02-28575600","Lng":"121.481264","Lat":"25.08031"}
    ,
    { "county":"新北市","town":"三重區","name":"介壽耳鼻喉科診所","address":"新北市三重區正義北路255號","phone":"02-29810089","Lng":"121.495659","Lat":"25.069716"}
    ,
    { "county":"新北市","town":"蘆洲區","name":"民族診所","address":"新北市蘆洲區民族路53號","phone":"02-82857866","Lng":"121.478593","Lat":"25.085532"}
    ,
    { "county":"新北市","town":"蘆洲區","name":"德興診所","address":"新北市蘆洲區復興路67號","phone":"02-22855598","Lng":"121.476005","Lat":"25.087308"}
    ,
    { "county":"新北市","town":"板橋區","name":"德一診所","address":"新北市板橋區中山路二段236號","phone":"02-29535396","Lng":"121.478438","Lat":"25.018048"}
    ,
    { "county":"新北市","town":"新莊區","name":"中心診所","address":"新北市新莊區中港路321號","phone":"02-22765992","Lng":"121.452436","Lat":"25.044926"}
    ,
    { "county":"新北市","town":"新莊區","name":"中平耳鼻喉科診所","address":"新北市新莊區中平路29號","phone":"02-29977307","Lng":"121.444672","Lat":"25.043713"}
    ,
    { "county":"新北市","town":"新莊區","name":"新莊徐耳鼻喉科診所","address":"新北市新莊區中平路373號","phone":"02-29907505","Lng":"121.444615","Lat":"25.052533"}
    ,
    { "county":"臺北市","town":"內湖區","name":"葫洲診所","address":"臺北市內湖區康寧路三段35號","phone":"02-26306606","Lng":"121.607625","Lat":"25.072665"}
    ,
    { "county":"新北市","town":"蘆洲區","name":"華安診所","address":"新北市蘆洲區長安街205號","phone":"02-28481500","Lng":"121.46001","Lat":"25.082128"}
    ,
    { "county":"新北市","town":"蘆洲區","name":"建群診所","address":"新北市蘆洲區中華街71號1樓","phone":"02-28487669","Lng":"121.462256","Lat":"25.080629"}
    ,
    { "county":"新北市","town":"蘆洲區","name":"健群診所","address":"新北市蘆洲區中華街71號1樓","phone":"02-28487669","Lng":"121.462256","Lat":"25.080629"}
    ,
    { "county":"新北市","town":"蘆洲區","name":"健群耳鼻喉科診所","address":"新北市蘆洲區中華街71號1樓","phone":"02-28487669","Lng":"121.462256","Lat":"25.080629"}
    ,
    { "county":"新北市","town":"三重區","name":"明安耳鼻喉科診所","address":"新北市三重區正義北路54號","phone":"02-29862228","Lng":"121.497265","Lat":"25.06388"}
    ,
    { "county":"新北市","town":"板橋區","name":"林弘揚耳鼻喉科","address":"新北市板橋區陽明街295號","phone":"02-82513878","Lng":"121.461763","Lat":"25.026547"}
    ,
    { "county":"新北市","town":"板橋區","name":"林弘揚耳鼻喉科健康家庭醫學科聯合診所","address":"新北市板橋區陽明街295號","phone":"02-82513878","Lng":"121.461763","Lat":"25.026547"}
    ,
    { "county":"新北市","town":"新莊區","name":"林復森耳鼻喉科診所","address":"新北市新莊區民安路220號","phone":"02-22011378","Lng":"121.42598","Lat":"25.022592"}
    ,
    { "county":"新北市","town":"泰山區","name":"弘森診所","address":"新北市泰山區明志路一段257號","phone":"02-29090568","Lng":"121.432211","Lat":"25.060299"}
    ,
    { "county":"新北市","town":"三重區","name":"皇嘉耳鼻喉科診所","address":"新北市三重區五華街247號","phone":"02-28579666","Lng":"121.489155","Lat":"25.086228"}
    ,
    { "county":"新北市","town":"三重區","name":"天亮耳鼻喉科","address":"新北市三重區中正北路314號","phone":"02-89813431","Lng":"121.479217","Lat":"25.068998"}
    ,
    { "county":"新北市","town":"三重區","name":"宏生診所","address":"新北市三重區五華街72號","phone":"02-29819948","Lng":"121.493291","Lat":"25.081921"}
    ,
    { "county":"新北市","town":"三重區","name":"洋基耳鼻喉科","address":"新北市三重區正義北路288號","phone":"02-89810900","Lng":"121.495521","Lat":"25.069424"}
    ,
    { "county":"新北市","town":"中和區","name":"嘉仁診所","address":"新北市中和區華順街132號1樓","phone":"02-29521878","Lng":"121.46492","Lat":"24.996272"}
    ,
    { "county":"新北市","town":"板橋區","name":"興安診所","address":"新北市板橋區龍興街51號","phone":"02-29652683","Lng":"121.443094","Lat":"25.00093"}
    ,
    { "county":"新北市","town":"泰山區","name":"楓江診所","address":"新北市泰山區楓江路8號","phone":"02-22969708","Lng":"121.433508","Lat":"25.062438"}
    ,
    { "county":"新北市","town":"永和區","name":"健新耳鼻喉科診","address":"新北市永和區永貞路297號1樓","phone":"02-89210657","Lng":"121.510841","Lat":"25.005597"}
    ,
    { "county":"新北市","town":"永和區","name":"樂華診所","address":"新北市永和區永和路一段155號1樓","phone":"02-86608030","Lng":"121.514174","Lat":"25.009367"}
    ,
    { "county":"新北市","town":"樹林區","name":"幼安聯合診所","address":"新北市樹林區鎮前街26號","phone":"02-26817700","Lng":"121.426036","Lat":"24.993127"}
    ,
    { "county":"新北市","town":"樹林區","name":"何廷裕小兒科診所","address":"新北市樹林區日新街34號","phone":"02-26756789","Lng":"121.422718","Lat":"24.992419"}
    ,
    { "county":"新北市","town":"蘆洲區","name":"健安診所","address":"新北市蘆洲區長安街265號1樓","phone":"02-22826588","Lng":"121.458646","Lat":"25.083767"}
    ,
    { "county":"新北市","town":"蘆洲區","name":"建安診所","address":"新北市蘆洲區長安街265號1樓","phone":"02-22826588","Lng":"121.458646","Lat":"25.083767"}
    ,
    { "county":"新北市","town":"蘆洲區","name":"弘一診所","address":"新北市蘆洲區重陽街82號","phone":"02-82860000","Lng":"121.482026","Lat":"25.084433"}
    ,
    { "county":"新北市","town":"蘆洲區","name":"健侒診所","address":"新北市蘆洲區長安街265號1樓","phone":"02-22826588","Lng":"121.458646","Lat":"25.083767"}
    ,
    { "county":"新北市","town":"新店區","name":"何耳鼻喉科診所","address":"新北市新店區北新路3段138號1樓","phone":"02-29132269","Lng":"121.54164","Lat":"24.982125"}
    ,
    { "county":"臺北市","town":"內湖區","name":"育睿診所","address":"臺北市內湖區內湖路一段217巷35號","phone":"02-26560801","Lng":"121.565396","Lat":"25.083773"}
    ,
    { "county":"臺北市","town":"中山區","name":"大直診所","address":"臺北市中山區北安路595巷2弄2號","phone":"02-25332339","Lng":"121.548329","Lat":"25.082041"}
    ,
    { "county":"臺北市","town":"大安區","name":"杏保醫網信誠診所","address":"臺北市大安區信義路四段197號1、2樓","phone":"02-27068208","Lng":"121.551438","Lat":"25.033412"}
    ,
    { "county":"臺北市","town":"信義區","name":"松仁耳鼻喉科診所","address":"臺北市信義區松仁路231號","phone":"02-87808580","Lng":"121.568742","Lat":"25.026222"}
    ,
    { "county":"宜蘭縣","town":"宜蘭市","name":"李碧峰小兒科診所","address":"宜蘭市中山路三段29號","phone":"03-9356288","Lng":"121.75214","Lat":"24.756029"}
    ,
    { "county":"臺中市","town":"北屯區","name":"蘇游耳鼻喉科診所","address":"台中市北屯區昌平路一段99之3號","phone":"04-22462420","Lng":"120.690372","Lat":"24.173067"}
    ,
    { "county":"臺中市","town":"大甲區","name":"大元診所","address":"台中市大甲區順天路136號","phone":"04-26802250","Lng":"120.622173","Lat":"24.344587"}
    ,
    { "county":"臺中市","town":"大甲區","name":"小熊的森林診所","address":"台中市大甲區三民路132號","phone":"04-26805060","Lng":"120.621939","Lat":"24.348445"}
    ,
    { "county":"臺中市","town":"大甲區","name":"琉璃光診所","address":"台中市大甲區順天路342號","phone":"04-26873051","Lng":"120.627137","Lat":"24.350311"}
    ,
    { "county":"臺中市","town":"南屯區","name":"鄭元凱耳鼻喉科診所","address":"台中市南屯區河南路四段376號","phone":"04-22513502","Lng":"120.636934","Lat":"24.152055"}
    ,
    { "county":"雲林縣","town":"虎尾鎮","name":"虎尾台全診所","address":"雲林縣虎尾鎮林森路一段346號","phone":"05-6366111","Lng":"120.436387","Lat":"23.712202"}
    ,
    { "county":"嘉義市","town":"東區","name":"大心診所","address":"嘉義市東區吳鳳北路116號","phone":"05-2279237","Lng":"120.45362","Lat":"23.47728"}
    ,
    { "county":"嘉義市","town":"西區","name":"嘉祐耳鼻喉科診所","address":"嘉義市西區興業西路156號","phone":"05-2350860","Lng":"120.441599","Lat":"23.468319"}
    ,
    { "county":"嘉義市","town":"東區","name":"蔡耳鼻喉科診所","address":"嘉義市東區中山路270號","phone":"05-2222602","Lng":"120.45003","Lat":"23.480219"}
    ,
    { "county":"嘉義市","town":"西區","name":"陳明煌診所","address":"嘉義市西區北興街442號","phone":"05-2337036","Lng":"120.434929","Lat":"23.48751"}
    ,
    { "county":"嘉義市","town":"東區","name":"許小兒科診所","address":"嘉義市東區垂楊路139號","phone":"05-2280858","Lng":"120.45746","Lat":"23.4743"}
    ,
    { "county":"南投縣","town":"埔里鎮","name":"普仁診所","address":"南投縣埔里鎮東峰路19號","phone":"049-2930373","Lng":"120.945633","Lat":"24.002844"}
    ,
    { "county":"花蓮縣","town":"吉安鄉","name":"劉耳鼻喉科診所","address":"花蓮縣吉安鄉中華路二段138號","phone":"03-8544322","Lng":"121.584933","Lat":"23.973949"}
    ,
    { "county":"花蓮縣","town":"壽豐鄉","name":"信德診所","address":"花蓮縣壽豐鄉中山路三段76號","phone":"03-8661197","Lng":"121.53088","Lat":"23.909351"}
    ,
    { "county":"花蓮縣","town":"花蓮市","name":"廖耳鼻喉科診所","address":"花蓮縣花蓮市中華路422之1號","phone":"03-8356196","Lng":"121.594515","Lat":"23.974792"}
    ,
    { "county":"花蓮縣","town":"花蓮市","name":"中正診所","address":"花蓮縣花蓮市中正路172號","phone":"03-8316655","Lng":"121.598106","Lat":"23.971005"}
    ,
    { "county":"花蓮縣","town":"吉安鄉","name":"自強耳鼻喉科診所","address":"花蓮縣吉安鄉北昌村自強路568號","phone":"03-8561277","Lng":"121.592581","Lat":"23.987323"}
    ,
    { "county":"花蓮縣","town":"吉安鄉","name":"和田小兒科診所","address":"花蓮縣吉安鄉建國路二段229號1樓","phone":"03-8576822","Lng":"121.576247","Lat":"23.992256"}
    ,
    { "county":"花蓮縣","town":"花蓮市","name":"陳建發耳鼻喉科診所","address":"花蓮縣花蓮市中美路77之2號","phone":"03-8246119","Lng":"121.623555","Lat":"23.988954"}
    ,
    { "county":"花蓮縣","town":"花蓮市","name":"嘉光耳鼻喉科診所","address":"花蓮縣花蓮市明禮路71-5號","phone":"03-8341440","Lng":"121.608309","Lat":"23.982284"}
    ,
    { "county":"花蓮縣","town":"花蓮市","name":"周耳鼻喉科診所","address":"花蓮縣花蓮市中山路747號","phone":"03-8568801","Lng":"121.59768","Lat":"23.991696"}
    ,
    { "county":"花蓮縣","town":"花蓮市","name":"江洱診所","address":"花蓮縣花蓮市建國路252號","phone":"03-8311717","Lng":"121.599656","Lat":"23.984337"}
    ,
    { "county":"花蓮縣","town":"吉安鄉","name":"光鹽診所","address":"花蓮縣吉安鄉慶豐村中山路三段281號","phone":"03-8534305","Lng":"121.570684","Lat":"23.977709"}
    ,
    { "county":"花蓮縣","town":"花蓮市","name":"張淑華小兒科診所","address":"花蓮縣花蓮市國聯四路75號","phone":"03-8311031","Lng":"121.606084","Lat":"23.99237"}
    ,
    { "county":"花蓮縣","town":"花蓮市","name":"黃國樑小兒科診所","address":"花蓮縣花蓮市中福路186號","phone":"03-8343959","Lng":"121.601017","Lat":"23.973558"}
    ,
    { "county":"花蓮縣","town":"新城鄉","name":"花蓮縣新城鄉衛生所","address":"花蓮縣新城鄉北埔村北埔路160號","phone":"03-8266781","Lng":"121.605262","Lat":"24.030874"}
    ,
    { "county":"花蓮縣","town":"花蓮市","name":"張海山診所","address":"花蓮縣花蓮市中正路191號","phone":"03-8353777","Lng":"121.598919","Lat":"23.971858"}
    ,
    { "county":"花蓮縣","town":"鳳林鎮","name":"花蓮縣鳳林鎮衛生所","address":"花蓮縣鳳林鎮公正街8-1號","phone":"03-8761116","Lng":"121.451367","Lat":"23.74537"}
    ,
    { "county":"花蓮縣","town":"富里鄉","name":"花蓮縣富里鄉衛生所","address":"花蓮縣富里鄉中山路203號","phone":"03-8831029","Lng":"121.24906","Lat":"23.178473"}
    ,
    { "county":"花蓮縣","town":"吉安鄉","name":"康寧診所","address":"花蓮縣吉安鄉慶豐村中山路3段386號","phone":"03-8530910","Lng":"121.568853","Lat":"23.979095"}
    ,
    { "county":"臺東縣","town":"臺東市","name":"路瑪診所","address":"臺東縣知本里吉泰路18號","phone":"089-510015","Lng":"121.05743","Lat":"22.706641"}
    ,
    { "county":"臺東縣","town":"成功鎮","name":"曾建元診所","address":"臺東縣成功鎮中華路112號","phone":"089-851002","Lng":"121.38002","Lat":"23.100953"}
    ,
    { "county":"屏東縣","town":"屏東市","name":"小太陽兒科聯合診所","address":"屏東縣屏東市建豐路169號","phone":"08-7379591","Lng":"120.505348","Lat":"22.675816"}
    ,
    { "county":"南投縣","town":"南投市","name":"幼安小兒科診所","address":"南投縣南投市民族路243號","phone":"049-2206706","Lng":"120.687527","Lat":"23.90859"}
    
    ]
